No,名称,よみ,別名,別名よみ,山脈,標高,緯度,経度,都道府県,山域,備考
1,知床岳,しれとこだけ,,,知床,1254,44.23583333,145.2738889,北海道,知床・阿寒,
2,硫黄山,いおうざん,,,知床,1562,44.13333333,145.1613889,北海道,知床・阿寒,
3,知円別岳,ちえんべつだけ,,,知床,1544,44.12472222,145.1686111,北海道,知床・阿寒,☓
4,サシルイ岳,さしるいだけ,,,知床,1564,44.09527778,145.1436111,北海道,知床・阿寒,☓
5,羅臼岳,らうすだけ,,,知床,1661,44.07583333,145.1222222,北海道,知床・阿寒,日本百名山
6,遠音別岳,おんねべつだけ,,,知床,1330,43.99333333,145.0133333,北海道,知床・阿寒,
7,海別岳,うなべつだけ,,,知床,1419,43.87694444,144.8766667,北海道,知床・阿寒,
8,斜里岳,しゃりだけ,,,,1547,43.76555556,144.7177778,北海道,知床・阿寒,日本百名山
9,標津岳,しべつだけ,,,,1061,43.66805556,144.705,北海道,知床・阿寒,
10,藻琴山,もことやま,,,,1000,43.70444444,144.3311111,北海道,知床・阿寒,
11,アトサヌプリ,あとさぬぷり,硫黄山,いおうざん,,508,43.61027778,144.4386111,北海道,知床・阿寒,
12,カムイヌプリ,かむいぬぷり,摩周岳,ましゅうだけ,,857,43.57222222,144.5608333,北海道,知床・阿寒,
13,雄阿寒岳,おあかんだけ,,,,1370,43.45416667,144.1647222,北海道,知床・阿寒,
14,雌阿寒岳,めあかんだけ,,,,1499,43.38638889,144.0086111,北海道,知床・阿寒,日本百名山
15,阿寒富士,あかんふじ,,,,1476,43.37416667,144.0063889,北海道,知床・阿寒,☓
16,ウコタキヌプリ,うこたきぬぷり,,,,747,43.20833333,143.7975,北海道,白糠丘陵,
17,礼文岳,れぶんだけ,,,,490,45.3725,141.0158333,北海道,礼文・利尻,
18,利尻山,りしりざん,,,,1721,45.17861111,141.2419444,北海道,礼文・利尻,日本百名山
19,幌尻山,ぽろしりやま,,,,427,45.16555556,142.0086111,北海道,宗谷丘陵,
20,パンケ山,ぱんけざん,,,,632,44.85694444,142.1497222,北海道,宗谷丘陵,
21,ポロヌプリ山,ぽろぬぷりざん,,,,841,44.96166667,142.4202778,北海道,北見山地,
22,敏音知岳,びんねしりだけ,,,,703,44.89305556,142.2344444,北海道,北見山地,
23,函岳,はこだけ,,,,1129,44.66583333,142.4122222,北海道,北見山地,
24,ピヤシリ山,ぴやしりやま,,,,987,44.43361111,142.5841667,北海道,北見山地,
25,欝岳,うつだけ,,,,818,44.29166667,143.0825,北海道,北見山地,
26,ウェンシリ岳,うぇんしりだけ,,,,1142,44.22888889,142.8763889,北海道,北見山地,
27,渚滑岳,しょこつだけ,,,,1345,44.04027778,142.9175,北海道,北見山地,
28,天塩岳,てしおだけ,,,,1558,43.96444444,142.8880556,北海道,北見山地,日本二百名山
29,チトカニウシ山,ちとかにうしやま,,,,1446,43.90666667,143.0486111,北海道,北見山地,
30,仁頃山,にころやま,,,,829,43.87833333,143.7183333,北海道,北見山地,
31,ニセイカウシュッペ山,にせいかうしゅっぺやま,,,,1883,43.78,142.9852778,北海道,石狩山地,
32,武利岳,むりいだけ,,,,1876,43.73305556,143.1763889,北海道,石狩山地,
33,武華山,むかやま,,,,1759,43.70583333,143.1605556,北海道,石狩山地,
34,北見富士,きたみふじ,,,,1291,43.69361111,143.2958333,北海道,石狩山地,
35,旭岳,あさひだけ,,,大雪山,2291,43.66361111,142.8541667,北海道,石狩山地,日本百名山
36,黒岳,くろだけ,,,大雪山,1984,43.6975,142.9202778,北海道,石狩山地,
37,北鎮岳,ほくちんだけ,,,大雪山,2244,43.69277778,142.8797222,北海道,石狩山地,
38,愛別岳,あいべつだけ,,,大雪山,2113,43.70777778,142.8572222,北海道,石狩山地,
39,白雲岳,はくうんだけ,,,大雪山,2230,43.66111111,142.9058333,北海道,石狩山地,
40,忠別岳,ちゅうべつだけ,,,十勝,1963,43.59111111,142.8944444,北海道,石狩山地,
41,トムラウシ山,とむらうしやま,,,十勝,2141,43.52722222,142.8488889,北海道,石狩山地,日本百名山
42,オプタテシケ山,おぷたてしけやま,,,十勝,2013,43.47027778,142.7516667,北海道,石狩山地,
43,美瑛岳,びえいだけ,,,十勝,2052,43.44,142.7066667,北海道,石狩山地,☓
44,十勝岳,とかちだけ,,,十勝,2077,43.41777778,142.6863889,北海道,石狩山地,日本百名山
45,上ホロカメットク山,かみほろかめっとくやま,,,十勝,1920,43.405,142.6716667,北海道,石狩山地,☓
46,富良野岳,ふらのだけ,,,十勝,1912,43.39361111,142.635,北海道,石狩山地,
47,三国山,みくにやま,,,,1541,43.59527778,143.1463889,北海道,石狩山地,
48,石狩岳,いしかりだけ,,,,1967,43.54666667,143.0222222,北海道,石狩山地,日本二百名山
49,音更山,おとふけやま,,,,1932,43.56166667,143.0352778,北海道,石狩山地,☓
50,ニペソツ山,にぺそつやま,,,,2013,43.45583333,143.0322222,北海道,石狩山地,日本二百名山
51,ウペペサンケ山,うぺぺさんけやま,,,,1848,43.38944444,143.0819444,北海道,石狩山地,
52,東ヌプカウシヌプリ,ひがしぬぷかうしぬぷり,,,,1252,43.24583333,143.1022222,北海道,石狩山地,
53,佐幌岳,さほろだけ,,,,1060,43.17333333,142.7811111,北海道,石狩山地,
54,西クマネシリ岳,にしくまねしりだけ,,,,1635,43.51916667,143.2333333,北海道,石狩山地,
55,東三国山,ひがしみくにやま,,,,1230,43.50833333,143.4636111,北海道,石狩山地,
56,喜登牛山,きとうしやま,,,,1312,43.44777778,143.4563889,北海道,石狩山地,
57,ピッシリ山,ぴっしりざん,,,,1032,44.35555556,142.0319444,北海道,天塩山地,
58,三頭山,さんとうさん,,,,1009,44.09166667,142.0858333,北海道,天塩山地,
59,ポロシリ山,ぽろしりやま,,,,730,43.9625,141.8361111,北海道,天塩山地,
60,暑寒別岳,しょかんべつだけ,,,,1492,43.71583333,141.5230556,北海道,増毛山地,日本二百名山
61,群別岳,くんべつだけ,,,,1376,43.68472222,141.4877778,北海道,増毛山地,
62,ピンネシリ,ぴんねしり,,,,1100,43.49194444,141.7066667,北海道,増毛山地,
63,イルムケップ山,いるむけっぷやま,,,,864,43.62916667,142.1102778,北海道,夕張山地,
64,富良野西岳,ふらのにしだけ,,,,1331,43.30916667,142.3116667,北海道,夕張山地,
65,芦別岳,あしべつだけ,,,,1726,43.23583333,142.2836111,北海道,夕張山地,日本二百名山
66,幾春別岳,いくしゅんべつだけ,,,,1068,43.22694444,142.1594444,北海道,夕張山地,
67,夕張岳,ゆうばりだけ,,,,1668,43.09972222,142.2511111,北海道,夕張山地,日本二百名山
68,ハッタオマナイ岳,はったおまないだけ,,,,1021,42.84694444,142.3130556,北海道,夕張山地,
69,トマム山,とまむさん,,,,1239,43.07861111,142.5961111,北海道,日高山脈,
70,芽室岳,めむろだけ,,,,1754,42.86888889,142.7852778,北海道,日高山脈,
71,剣山,つるぎやま,,,,1205,42.84861111,142.885,北海道,日高山脈,
72,チロロ岳,ちろろだけ,,,日高,1880,42.82555556,142.6752778,北海道,日高山脈,
73,ピパイロ岳,ぴぱいろだけ,,,日高,1916,42.77305556,142.7275,北海道,日高山脈,
74,戸蔦別岳,とったべつだけ,,,日高,1959,42.73861111,142.695,北海道,日高山脈,☓
75,幌尻岳,ぽろしりだけ,,,日高,2052,42.71944444,142.6827778,北海道,日高山脈,日本百名山
76,エサオマントッタベツ岳,えさおまんとったべつだけ,,,日高,1902,42.68916667,142.7577778,北海道,日高山脈,☓
77,札内岳,さつないだけ,,,日高,1895,42.69388889,142.7966667,北海道,日高山脈,
78,十勝幌尻岳,とかちぽろしりだけ,,,日高,1846,42.69555556,142.8594444,北海道,日高山脈,☓
79,イドンナップ岳,いどんなっぷだけ,,,日高,1752,42.63027778,142.6486111,北海道,日高山脈,
80,カムイエクウチカウシ山,かむいえくうちかうしやま,,,日高,1979,42.625,142.7663889,北海道,日高山脈,日本二百名山
81,１８３９峰,いっぱさんきゅうほう,,,日高,1842,42.53944444,142.8080556,北海道,日高山脈,
82,ペテガリ岳,ぺてがりだけ,,,日高,1736,42.49944444,142.8711111,北海道,日高山脈,日本二百名山
83,中ノ岳,なかのだけ,,,日高,1519,42.46805556,142.8844444,北海道,日高山脈,☓
84,神威岳,かむいだけ,,,日高,1600,42.42833333,142.9069444,北海道,日高山脈,
85,ピリカヌプリ,ぴりかぬぷり,,,日高,1631,42.40222222,142.9666667,北海道,日高山脈,
86,楽古岳,らっこだけ,,,日高,1471,42.2725,143.1111111,北海道,日高山脈,
87,豊似岳,とよにだけ,,,,1105,42.07694444,143.2330556,北海道,日高山脈,
88,アポイ岳,あぽいだけ,,,,810,42.10777778,143.0255556,北海道,日高山脈,
89,藻岩山,もいわやま,,,,531,43.0225,141.3222222,北海道,支笏・洞爺・積丹,
90,手稲山,ていねやま,,,,1023,43.07666667,141.1925,北海道,支笏・洞爺・積丹,
91,余市岳,よいちだけ,,,,1488,43.03277778,141.0197222,北海道,支笏・洞爺・積丹,
92,本倶登山,ぽんくとさん,,,,1009,42.95527778,140.9125,北海道,支笏・洞爺・積丹,
93,無意根山,むいねやま,,,,1464,42.93083333,141.0405556,北海道,支笏・洞爺・積丹,
94,札幌岳,さっぽろだけ,,,,1293,42.90027778,141.2005556,北海道,支笏・洞爺・積丹,
95,空沼岳,そらぬまだけ,,,,1251,42.865,141.2536111,北海道,支笏・洞爺・積丹,
96,恵庭岳,えにわだけ,,,,1320,42.79333333,141.2852778,北海道,支笏・洞爺・積丹,
97,風不死岳,ふっぷしだけ,,,,1102,42.71694444,141.3588889,北海道,支笏・洞爺・積丹,
98,樽前山,たるまえさん,,,,1041,42.69055556,141.3766667,北海道,支笏・洞爺・積丹,日本二百名山
99,ホロホロ山,ほろほろやま,,,,1322,42.63361111,141.1425,北海道,支笏・洞爺・積丹,
100,余別岳,よべつだけ,,,,1298,43.26,140.4591667,北海道,支笏・洞爺・積丹,
101,天狗岳,てんぐだけ,,,,872,43.18472222,140.6608333,北海道,支笏・洞爺・積丹,
102,雷電山,らいでんやま,,,,1211,42.90361111,140.4697222,北海道,支笏・洞爺・積丹,
103,目国内岳,めくんないだけ,,,,1220,42.89972222,140.5152778,北海道,支笏・洞爺・積丹,
104,ニセコアンヌプリ,にせこあんぬぷり,,,,1308,42.875,140.6588889,北海道,支笏・洞爺・積丹,
105,羊蹄山,ようていざん,後方羊蹄山,しりべしやま,,1898,42.82666667,140.8113889,北海道,支笏・洞爺・積丹,日本百名山
106,尻別岳,しりべつだけ,,,,1107,42.7725,140.9102778,北海道,支笏・洞爺・積丹,
107,貫気別山,ぬっきべつやま,,,,994,42.71,140.9227778,北海道,支笏・洞爺・積丹,
108,昆布岳,こんぶだけ,,,,1045,42.71027778,140.6555556,北海道,支笏・洞爺・積丹,
109,昭和新山,しょうわしんざん,,,,398,42.5425,140.8644444,北海道,支笏・洞爺・積丹,
110,有珠山,うすざん,,,,733,42.54388889,140.8391667,北海道,支笏・洞爺・積丹,
111,母衣月山,ほろづきやま,,,,504,42.77,140.215,北海道,渡島半島,
112,大平山,おおびらやま,,,,1191,42.63583333,140.1355556,北海道,渡島半島,
113,狩場山,かりばやま,,,,1520,42.61333333,139.9405556,北海道,渡島半島,
114,毛無山,けなしやま,,,,816,42.29527778,139.8105556,北海道,渡島半島,
115,遊楽部岳,ゆうらっぷだけ,見市岳,けんいちだけ,,1277,42.21916667,140.0105556,北海道,渡島半島,
116,乙部岳,おとべだけ,,,,1017,42.03944444,140.2747222,北海道,渡島半島,
117,駒ヶ岳,こまがたけ,,,,1131,42.06333333,140.6772222,北海道,渡島半島,日本二百名山
118,横津岳,よこつだけ,,,,1167,41.93777778,140.7713889,北海道,渡島半島,
119,恵山,えさん,,,,618,41.80472222,141.1661111,北海道,渡島半島,
120,函館山,はこだてやま,,,,334,41.75888889,140.7041667,北海道,渡島半島,
121,八幡岳,はちまんだけ,,,,665,41.85194444,140.23,北海道,渡島半島,
122,桂岳,かつらだけ,,,,734,41.78916667,140.4644444,北海道,渡島半島,
123,七ッ岳,ななつだけ,,,,957,41.62416667,140.2141667,北海道,渡島半島,
124,大千軒岳,だいせんげんだけ,,,,1072,41.57944444,140.1608333,北海道,渡島半島,
125,岩部岳,いわべだけ,,,,794,41.52722222,140.3108333,北海道,渡島半島,
126,神威山,かむいやま,,,,584,42.16027778,139.4427778,北海道,奥尻島,
127,江良岳,えらだけ,,,,732,41.51,139.3672222,北海道,渡島大島,
128,燧岳,ひうちだけ,,,,781,41.43916667,141.0530556,青森県,下北半島,
129,釜臥山,かまふせやま,,,,878,41.27861111,141.12,青森県,恐山山地,
130,桑畑山,くわはたやま,,,,400,41.3875,141.4408333,青森県,下北半島,
131,吹越烏帽子,ふっこしえぼし,,,,508,41.0375,141.3172222,青森県,下北半島,
132,丸屋形岳,まるやがただけ,,,,718,41.15277778,140.5866667,青森県,津軽半島,
133,四ッ滝山,よつだきやま,,,,670,41.12166667,140.4005556,青森県,津軽半島,
134,梵珠山,ぼんじゅさん,,,,468,40.79972222,140.5755556,青森県,津軽半島,
135,階上岳,はしかみだけ,種市岳,たねいちだけ,,739,40.40083333,141.5844444,青森県 岩手県,北上高地,
136,名久井岳,なくいだけ,,,,615,40.38805556,141.3083333,青森県,北上高地,
137,折爪岳,おりつめだけ,,,,852,40.26888889,141.3744444,岩手県,北上高地,
138,安家森,あっかもり,,,,1239,40.03805556,141.5411111,岩手県,北上高地,
139,遠島山,とおしまやま,,,,1262,40.02055556,141.6441667,岩手県,北上高地,
140,三巣子岳,みすごだけ,,,,1181,39.9,141.4855556,岩手県,北上高地,
141,姫神山,ひめかみさん,,,,1124,39.84416667,141.2469444,岩手県,北上高地,日本二百名山
142,堺ノ神岳,さかいのかみだけ,,,,1319,39.75027778,141.6263889,岩手県,北上高地,
143,害鷹森,がいたかもり,,,,1304,39.71166667,141.6044444,岩手県,北上高地,
144,青松葉山,あおまつばやま,,,,1365,39.6975,141.4836111,岩手県,北上高地,
145,峠ノ神山,とうげのかみやま,,,,1229,39.72694444,141.7811111,岩手県,北上高地,
146,早池峰山,はやちねさん,,,,1917,39.55861111,141.4886111,岩手県,北上高地,日本百名山
147,薬師岳,やくしだけ,,,,1645,39.53,141.4958333,岩手県,北上高地,
148,十二神山,じゅうにしんざん,,,,731,39.53861111,141.975,岩手県,北上高地,
149,六角牛山,ろっこうしさん,,,,1293,39.31833333,141.6502778,岩手県,北上高地,
150,五葉山,ごようざん,,,,1351,39.20527778,141.7322222,岩手県,北上高地,
151,物見山,ものみやま,,,,870,39.20111111,141.4016667,岩手県,北上高地,
152,氷上山,ひかみさん,,,,874,39.05888889,141.6605556,岩手県,北上高地,
153,室根山,むろねさん,,,,895,38.97527778,141.4472222,岩手県,北上高地,
154,徳仙丈山,とくせんじょうやま,,,,710,38.84833333,141.47,宮城県,北上高地,
155,金華山,きんかさん,,,,444,38.29527778,141.5666667,宮城県,北上高地,
156,八甲田山,はっこうださん,大岳,おおだけ,,1585,40.65888889,140.8772222,青森県,八甲田山とその周辺,日本百名山
157,高田大岳,たかだおおだけ,,,,1552,40.65277778,140.9083333,青森県,八甲田山とその周辺,☓
158,櫛ヶ峯,くしがみね,上岳,かみだけ,,1517,40.60305556,140.8425,青森県,八甲田山とその周辺,
159,戸来岳,へらいだけ,三ッ岳,みつだけ,,1159,40.45305556,141.0013889,青森県,八甲田山とその周辺,
160,白地山,しろじやま,,,,1034,40.44722222,140.7880556,秋田県,八甲田山とその周辺,
161,中岳,なかだけ,,,,1024,40.24611111,140.9444444,秋田県 岩手県,奥羽山脈北部,
162,稲庭岳,いなにわだけ,,,,1078,40.19861111,141.0461111,岩手県,奥羽山脈北部,
163,五ノ宮嶽,ごのみやだけ,,,,1115,40.14583333,140.8458333,秋田県,奥羽山脈北部,
164,七時雨山,ななしぐれやま,,,,1063,40.06916667,141.1055556,岩手県,奥羽山脈北部,
165,森吉山,もりよしざん,,,,1454,39.97666667,140.5441667,秋田県,奥羽山脈北部,日本二百名山
166,焼山,やけやま,,,,1366,39.96388889,140.7569444,秋田県,奥羽山脈北部,
167,八幡平,はちまんたい,,,,1613,39.95777778,140.8541667,岩手県,奥羽山脈北部,日本百名山
168,茶臼岳,ちゃうすだけ,,,,1578,39.95083333,140.8988889,岩手県,奥羽山脈北部,☓
169,畚岳,もっこだけ,,,,1578,39.93583333,140.8505556,秋田県,奥羽山脈北部,☓
170,大深岳,おおふかだけ,,,,1541,39.88111111,140.8797222,岩手県 秋田県,奥羽山脈北部,
171,岩手山,いわてさん,,,,2038,39.8525,141.0011111,岩手県,奥羽山脈北部,日本百名山
172,烏帽子岳,えぼしだけ,乳頭山,にゅうとうざん,,1478,39.805,140.8386111,岩手県 秋田県,奥羽山脈北部,
173,秋田駒ヶ岳,あきたこまがたけ,男女岳,おなめだけ,,1637,39.76111111,140.7994444,秋田県,奥羽山脈北部,日本二百名山
174,岩木山,いわきさん,,,,1625,40.65583333,140.3030556,青森県,白神山地,日本百名山
175,向白神岳,むかいしらかみだけ,,,,1250,40.52388889,140.0455556,青森県,白神山地,☓
176,白神岳,しらかみだけ,,,,1235,40.5075,140.0183333,青森県,白神山地,日本二百名山
177,二ッ森,ふたつもり,,,,1086,40.435,140.1177778,青森県 秋田県,白神山地,
178,駒ヶ岳,こまがたけ,,,,1158,40.41277778,140.2511111,秋田県,白神山地,
179,田代岳,たしろだけ,,,,1178,40.42861111,140.4088889,秋田県,白神山地,
180,房住山,ぼうじゅうさん,,,,409,40.06055556,140.2161111,秋田県,出羽山地,
181,太平山,たいへいざん,,,,1170,39.79694444,140.3105556,秋田県,出羽山地,
182,大仏岳,だいぶつだけ,,,,1167,39.81361111,140.5155556,秋田県,出羽山地,
183,東光山,とうこうさん,,,,594,39.40638889,140.1616667,秋田県,出羽山地,
184,八塩山,やしおやま,,,,713,39.23666667,140.2277778,秋田県,出羽山地,
185,鳥海山,ちょうかいざん,,,,2236,39.09916667,140.0488889,山形県,出羽山地,日本百名山
186,丁岳,ひのとだけ,,,,1146,39.03194444,140.2194444,秋田県 山形県,出羽山地,
187,甑山,こしきやま,,,,981,39.01194444,140.3105556,山形県,出羽山地,
188,加無山,かぶやま,,,,997,39.00944444,140.2602778,山形県,出羽山地,
189,寒風山,かんぷうざん,,,,355,39.93361111,139.8752778,秋田県,男鹿半島,
190,本山,ほんざん,,,,715,39.90694444,139.7538889,秋田県,男鹿半島,
191,東根山,あずまねやま,,,,928,39.5875,141.0597222,岩手県,奥羽山脈中部,
192,和賀岳,わがだけ,,,,1439,39.57027778,140.7541667,岩手県 秋田県,奥羽山脈中部,日本二百名山
193,真昼岳,まひるだけ,,,,1059,39.44777778,140.6766667,岩手県 秋田県,奥羽山脈中部,
194,黒森,くろもり,,,,944,39.34833333,140.8683333,岩手県,奥羽山脈中部,
195,焼石岳,やけいしだけ,,,,1547,39.16361111,140.8288889,岩手県,奥羽山脈中部,日本二百名山
196,栗駒山,くりこまやま,,,,1626,38.96083333,140.7883333,岩手県 宮城県,奥羽山脈中部,日本二百名山
197,高松岳,たかまつだけ,,,,1348,38.9675,140.6063889,秋田県,奥羽山脈中部,
198,虎毛山,とらげさん,,,,1433,38.90472222,140.6188889,秋田県,奥羽山脈中部,
199,荒雄岳,あらおだけ,,,,984,38.83305556,140.6916667,宮城県,奥羽山脈中部,
200,神室山,かむろさん,,,,1365,38.90222222,140.4922222,秋田県 山形県,奥羽山脈中部,日本二百名山
201,火打岳,ひうちだけ,,,,1238,38.84027778,140.4486111,山形県,奥羽山脈中部,
202,杢蔵山,もくぞうやま,,,,1026,38.78944444,140.4013889,山形県,奥羽山脈中部,
203,禿岳,かむろだけ,小鏑山,こかぶらやま,,1261,38.81083333,140.595,山形県 宮城県,奥羽山脈中部,
204,箟岳山,ののだけやま,,,,236,38.56583333,141.1786111,宮城県,奥羽山脈南部,
205,大高森,おおたかもり,,,,105,38.34055556,141.1525,宮城県,奥羽山脈南部,
206,翁山,おきなさん,,,,1075,38.65083333,140.5447222,山形県,奥羽山脈南部,
207,薬莱山,やくらいさん,,,,553,38.57555556,140.7052778,宮城県,奥羽山脈南部,
208,船形山,ふながたやま,御所山,ごしょざん,,1500,38.45555556,140.62,宮城県 山形県,奥羽山脈南部,日本二百名山
209,泉ヶ岳,いずみがたけ,,,,1175,38.41194444,140.7088889,宮城県,奥羽山脈南部,
210,太白山,たいはくさん,,,,321,38.235,140.8022222,宮城県,奥羽山脈南部,
211,大東岳,だいとうだけ,,,,1365,38.30222222,140.5236111,宮城県,奥羽山脈南部,
212,熊野岳,くまのだけ,,,蔵王,1841,38.14361111,140.44,山形県,蔵王山とその周辺,日本百名山
213,刈田岳,かっただけ,,,蔵王,1758,38.12777778,140.4480556,宮城県,蔵王山とその周辺,☓
214,屏風岳,びょうぶだけ,,,蔵王,1825,38.09583333,140.4761111,宮城県,蔵王山とその周辺,
215,不忘山,ふぼうさん,御前岳,ごぜんだけ,蔵王,1705,38.07555556,140.4788889,宮城県,蔵王山とその周辺,☓
216,青麻山,あおそやま,,,,799,38.08472222,140.6075,宮城県,蔵王山とその周辺,
217,栗子山,くりこやま,,,,1217,37.87444444,140.27,福島県 山形県,吾妻山とその周辺,
218,信夫山,しのぶやま,,,,275,37.77083333,140.4616667,福島県,吾妻山とその周辺,
219,西吾妻山,にしあづまやま,,,吾妻,2035,37.73833333,140.1408333,福島県 山形県,吾妻山とその周辺,日本百名山
220,西大巓,にしだいてん,,,吾妻,1982,37.73388889,140.1277778,山形県 福島県,吾妻山とその周辺,☓
221,東大巓,ひがしだいてん,,,吾妻,1928,37.75444444,140.1888889,福島県 山形県,吾妻山とその周辺,☓
222,東吾妻山,ひがしあづまやま,,,吾妻,1975,37.71166667,140.2302778,福島県,吾妻山とその周辺,
223,一切経山,いっさいきょうざん,,,吾妻,1949,37.73527778,140.2444444,福島県,吾妻山とその周辺,
224,吾妻小富士,あづまこふじ,,,吾妻,1707,37.72222222,140.2636111,福島県,吾妻山とその周辺,
225,箕輪山,みのわやま,,,,1728,37.64722222,140.2808333,福島県,吾妻山とその周辺,☓
226,鉄山,てつざん,,,,1709,37.63305556,140.2830556,福島県,吾妻山とその周辺,☓
227,安達太良山,あだたらやま,,,,1700,37.62111111,140.2877778,福島県,吾妻山とその周辺,日本百名山
228,磐梯山,ばんだいさん,,,,1816,37.60111111,140.0722222,福島県,吾妻山とその周辺,日本百名山
229,高館山　,たかだてやま,,,,273,38.76305556,139.7475,山形県,朝日山地,
230,金峰山,きんぼうさん,,,,471,38.68222222,139.7980556,山形県,朝日山地,
231,羽黒山,はぐろさん,,,,414,38.7025,139.9827778,山形県,朝日山地,
232,月山,がっさん,,,,1984,38.54888889,140.0269444,山形県,朝日山地,日本百名山
233,葉山,はやま,,,,1462,38.52916667,140.2105556,山形県,朝日山地,
234,温海岳,あつみだけ,,,,736,38.62,139.6308333,山形県,朝日山地,
235,摩耶山,まやさん,,,,1020,38.52027778,139.7277778,山形県,朝日山地,
236,以東岳,いとうだけ,,,朝日,1772,38.34305556,139.8491667,山形県 新潟県,朝日山地,日本二百名山
237,大朝日岳,おおあさひだけ,,,朝日,1871,38.26055556,139.9222222,山形県,朝日山地,日本百名山
238,祝瓶山　,いわいがめやま,,,朝日,1417,38.1975,139.8797222,山形県,朝日山地,
239,鷲ヶ巣山,わしがすやま,,,,1093,38.22194444,139.6688889,新潟県,朝日山地,
240,新保岳,しんぼだけ,,,,852,38.36111111,139.5108333,新潟県,朝日山地,
241,白鷹山,しらたかやま,,,,994,38.22277778,140.1730556,山形県,朝日山地,
242,杁差岳,えぶりさしだけ,,,飯豊,1636,37.9425,139.6088889,新潟県,飯豊山地,日本二百名山
243,北股岳,きたまただけ,,,飯豊,2025,37.88,139.6386111,新潟県 山形県,飯豊山地,
244,飯豊山,いいでさん,,,飯豊,2105,37.85472222,139.7072222,福島県,飯豊山地,日本百名山
245,大日岳,だいにちだけ,,,飯豊,2128,37.83277778,139.6602778,新潟県,飯豊山地,
246,二王子岳,にのうじだけ,,,,1420,37.89972222,139.4991667,新潟県,飯豊山地,日本二百名山
247,五頭山,ごずさん,,,,912,37.80111111,139.3455556,新潟県,飯豊山地,
248,高陽山,こうようざん,,,,1126,37.72916667,139.6497222,福島県 新潟県,飯豊山地,
249,飯森山,いいもりさん,,,,1595,37.81388889,139.9255556,山形県 福島県,飯豊山地,
250,霊山,りょうぜん,,,,825,37.76888889,140.6875,福島県,阿武隈高地,
251,日山,ひやま,天王山,てんのうざん,,1057,37.54305556,140.6836111,福島県,阿武隈高地,
252,鎌倉岳,かまくらだけ,,,,967,37.46694444,140.6888889,福島県,阿武隈高地,
253,大滝根山,おおたきねやま,,,,1192,37.355,140.7016667,福島県,阿武隈高地,
254,屹兎屋山,きっとやさん,,,,875,37.21055556,140.8675,福島県,阿武隈高地,
255,蓬田岳,よもぎだだけ,,,,952,37.26583333,140.5347222,福島県,阿武隈高地,
256,三大明神山,さんだいみょうじんやま,,,,706,37.05194444,140.7625,福島県,阿武隈高地,
257,竪破山,たつわれさん,,,,658,36.71083333,140.5622222,茨城県,阿武隈高地,
258,男体山,なんたいさん,,,,654,36.72416667,140.4197222,茨城県,阿武隈高地,
259,高鈴山,たかすずやま,,,,623,36.62111111,140.5877778,茨城県,阿武隈高地,
260,八溝山,やみぞさん,,,,1022,36.93027778,140.2730556,茨城県 福島県,八溝山地,
261,吾国山,わがくにさん,,,,518,36.32194444,140.2011111,茨城県,筑波山とその周辺,
262,加波山,かばさん,,,,709,36.29888889,140.1436111,茨城県,筑波山とその周辺,
263,筑波山,つくばさん,,,,877,36.22527778,140.1066667,茨城県,筑波山とその周辺,日本百名山
264,三本槍岳,さんぼんやりだけ,,,那須,1917,37.15027778,139.9613889,福島県 栃木県,那須・日光,
265,茶臼岳,ちゃうすだけ,,,那須,1915,37.12472222,139.9630556,栃木県,那須・日光,日本百名山
266,男鹿岳,おがたけ,,,,1777,37.08527778,139.8219444,福島県 栃木県,那須・日光,
267,大佐飛山,おおさびやま,,,,1908,37.06361111,139.8444444,栃木県,那須・日光,
268,釈迦ヶ岳,しゃかがだけ,高原山,たかはらやま,,1795,36.9,139.7766667,栃木県,那須・日光,
269,女峰山,にょほうさん,,,日光,2483,36.81138889,139.5363889,栃木県,那須・日光,日本二百名山
270,大真名子山,おおまなごさん,,,日光,2376,36.79527778,139.5072222,栃木県,那須・日光,☓
271,小真名子山,こまなごさん,,,日光,2323,36.80722222,139.5108333,栃木県,那須・日光,☓
272,太郎山,たろうさん,,,日光,2368,36.81777778,139.4827778,栃木県,那須・日光,☓
273,男体山,なんたいさん,,,日光,2486,36.765,139.4908333,栃木県,那須・日光,日本百名山
274,白根山,しらねさん,,,,2578,36.79861111,139.3758333,群馬県 栃木県,那須・日光,日本百名山
275,皇海山,すかいさん,,,,2144,36.69,139.3369444,栃木県 群馬県,那須・日光,日本百名山
276,庚申山,こうしんざん,,,,1892,36.67305556,139.3611111,栃木県,那須・日光,
277,袈裟丸山,けさまるやま,,,,1961,36.64944444,139.3272222,栃木県 群馬県,那須・日光,
278,横根山,よこねやま,,,,1373,36.61972222,139.5222222,栃木県,那須・日光,
279,赤城山,あかぎやま,黒檜山,くろびさん,,1828,36.56027778,139.1933333,群馬県,那須・日光,日本百名山
280,地蔵岳,じぞうだけ,,,,1674,36.54111111,139.1772222,群馬県,那須・日光,☓
281,博士山,はかせやま,,,,1482,37.36305556,139.7147222,福島県,南会津・尾瀬,
282,小野岳,おのだけ,,,,1383,37.32583333,139.8866667,福島県,南会津・尾瀬,
283,七ヶ岳,ななつがたけ,一番岳,いちばんだけ,,1636,37.12416667,139.6575,福島県,南会津・尾瀬,
284,荒海山,あらかいざん,太郎岳,たろうだけ,,1581,37.03611111,139.6436111,福島県 栃木県,南会津・尾瀬,
285,田代山,たしろやま,,,,1971,36.97444444,139.4783333,福島県,南会津・尾瀬,
286,帝釈山,たいしゃくざん,,,,2060,36.96972222,139.46,福島県 栃木県,南会津・尾瀬,日本二百名山
287,黒岩山,くろいわやま,,,,2163,36.90888889,139.3936111,栃木県 群馬県,南会津・尾瀬,
288,鬼怒沼山,きぬぬまやま,,,,2141,36.88277778,139.3716667,栃木県 群馬県,南会津・尾瀬,
289,朝日岳,あさひだけ,,,,1624,37.22111111,139.3397222,福島県,南会津・尾瀬,日本二百名山
290,丸山岳,まるやまだけ,,,,1820,37.17277778,139.3347222,福島県,南会津・尾瀬,
291,会津駒ヶ岳,あいづこまがたけ,,,,2133,37.0475,139.3536111,福島県,南会津・尾瀬,日本百名山
292,平ヶ岳,ひらがたけ,,,,2141,37.00194444,139.1708333,群馬県 新潟県,南会津・尾瀬,日本百名山
293,景鶴山,けいづるやま,,,,2004,36.95694444,139.2105556,群馬県 新潟県,南会津・尾瀬,
294,燧ヶ岳,ひうちがたけ,,,,2356,36.955,139.2852778,福島県,南会津・尾瀬,日本百名山
295,至仏山,しぶつさん,,,,2228,36.90361111,139.1733333,群馬県,南会津・尾瀬,日本百名山
296,武尊山,ほたかやま,,,,2158,36.80527778,139.1325,群馬県,南会津・尾瀬,日本百名山
297,御神楽岳,みかぐらだけ,,,,1386,37.52194444,139.4258333,新潟県,越後山脈,日本二百名山
298,粟ヶ岳,あわがたけ,,,,1293,37.55527778,139.1886111,新潟県,越後山脈,
299,矢筈岳,やはずだけ,,,,1257,37.5125,139.2661111,新潟県,越後山脈,
300,守門岳,すもんだけ,,,,1537,37.39777778,139.1366667,新潟県,越後山脈,日本二百名山
301,浅草岳,あさくさだけ,,,,1585,37.34361111,139.2336111,新潟県 福島県,越後山脈,
302,毛猛山,けもうやま,,,,1517,37.25666667,139.1752778,福島県 新潟県,越後山脈,
303,未丈ヶ岳,みじょうがたけ,,,,1553,37.18333333,139.1894444,新潟県,越後山脈,
304,越後駒ヶ岳,えちごこまがたけ,,,越後三山,2003,37.12361111,139.0752778,新潟県,越後山脈,日本百名山
305,八海山,はっかいさん,入道岳,にゅうどうだけ,越後三山,1778,37.10388889,139.0247222,新潟県,越後山脈,日本二百名山
306,中ノ岳,なかのだけ,,,越後三山,2085,37.08527778,139.0775,新潟県,越後山脈,日本二百名山
307,荒沢岳,あらさわだけ,,,,1969,37.10055556,139.1480556,新潟県,越後山脈,日本二百名山
308,下津川山,しもつごうやま,,,,1928,36.99472222,139.05,新潟県 群馬県,越後山脈,
309,巻機山,まきはたやま,,,,1967,36.97861111,138.9641667,群馬県 新潟県,越後山脈,日本百名山
310,大源太山,だいげんたさん,,,,1598,36.9025,138.9269444,新潟県,越後山脈,
311,朝日岳,あさひだけ,,,,1945,36.88055556,138.9725,群馬県,越後山脈,
312,白毛門,しらがもん,,,,1720,36.85972222,138.9672222,群馬県,越後山脈,
313,茂倉岳,しげくらだけ,,,谷川,1978,36.84916667,138.9166667,群馬県 新潟県,越後山脈,
314,一ノ倉岳,いちのくらだけ,,,谷川,1974,36.84722222,138.9244444,群馬県 新潟県,越後山脈,☓
315,オキノ耳,おきのみみ,,,谷川,1977,36.83722222,138.93,群馬県 新潟県,越後山脈,日本百名山
316,万太郎山,まんたろうさん,,,谷川,1954,36.82416667,138.8791667,群馬県 新潟県,越後山脈,
317,仙ノ倉山,せんのくらやま,,,谷川,2026,36.8175,138.8394444,群馬県 新潟県,越後山脈,日本二百名山
318,吾妻耶山,あづまやさん,,,,1341,36.74638889,138.9272222,群馬県,越後山脈,
319,苗場山,なえばさん,,,,2145,36.84583333,138.6902778,新潟県 長野県,苗場山・白根山・浅間山,日本百名山
320,佐武流山,さぶりゅうやま,,,,2192,36.77222222,138.6705556,新潟県 長野県,苗場山・白根山・浅間山,日本二百名山
321,白砂山,しらすなやま,,,,2140,36.73805556,138.6936111,群馬県 長野県,苗場山・白根山・浅間山,日本二百名山
322,鳥甲山,とりかぶとやま,,,,2038,36.83916667,138.5838889,長野県,苗場山・白根山・浅間山,日本二百名山
323,高社山,こうしゃさん,,,,1351,36.79916667,138.4038889,長野県,苗場山・白根山・浅間山,
324,裏岩菅山,うらいわすげやま,,,,2341,36.75277778,138.5680556,長野県,苗場山・白根山・浅間山,☓
325,岩菅山,いわすげやま,,,,2295,36.74194444,138.5594444,長野県,苗場山・白根山・浅間山,日本二百名山
326,志賀山,しがやま,,,,2037,36.70027778,138.5158333,長野県,苗場山・白根山・浅間山,
327,笠ヶ岳,かさがたけ,,,,2076,36.67666667,138.4813889,長野県,苗場山・白根山・浅間山,
328,横手山,よこてやま,,,,2307,36.66888889,138.5258333,群馬県 長野県,苗場山・白根山・浅間山,
329,白根山,しらねさん,,,,2160,36.64388889,138.5277778,群馬県,苗場山・白根山・浅間山,☓
330,草津白根山,くさつしらねさん,本白根山,もとしらねさん,,2171,36.62277778,138.5319444,群馬県,苗場山・白根山・浅間山,日本百名山
331,四阿山,あずまやさん,,,,2354,36.54166667,138.4130556,長野県 群馬県,苗場山・白根山・浅間山,日本百名山
332,根子岳,ねこだけ,,,,2207,36.54916667,138.3952778,長野県,苗場山・白根山・浅間山,☓
333,湯ノ丸山,ゆのまるやま,,,,2101,36.43472222,138.4011111,長野県 群馬県,苗場山・白根山・浅間山,
334,篭ノ登山,かごのとやま,,,,2228,36.41944444,138.4472222,長野県 群馬県,苗場山・白根山・浅間山,
335,浅間山,あさまやま,,,,2568,36.40666667,138.5230556,群馬県 長野県,苗場山・白根山・浅間山,日本百名山
336,浅間隠山,あさまかくしやま,,,,1757,36.45361111,138.6525,群馬県,苗場山・白根山・浅間山,日本二百名山
337,鼻曲山,はなまがりやま,,,,1655,36.41083333,138.6455556,群馬県,苗場山・白根山・浅間山,
338,榛名山,はるなさん,掃部ヶ岳,かもんがたけ,,1449,36.4775,138.8508333,群馬県,苗場山・白根山・浅間山,日本二百名山
339,子持山,こもちやま,,,,1296,36.59194444,138.9977778,群馬県,苗場山・白根山・浅間山,
340,妙義山,みょうぎさん,相馬岳,そうまだけ,,1104,36.29861111,138.7488889,群馬県,関東山地,日本二百名山
341,荒船山,あらふねやま,,,,1423,36.20388889,138.6372222,群馬県 長野県,関東山地,日本二百名山
342,赤久縄山,あかぐなやま,,,,1523,36.14361111,138.8433333,群馬県,関東山地,
343,御荷鉾山,みかぼやま,,,,1287,36.15222222,138.9183333,群馬県,関東山地,
344,二子山,ふたごやま,,,,1166,36.06972222,138.8636111,埼玉県,関東山地,
345,両神山,りょうかみさん,,,,1723,36.02333333,138.8413889,埼玉県,関東山地,日本百名山
346,御座山,おぐらさん,,,,2112,36.03388889,138.6066667,長野県,関東山地,日本二百名山
347,三宝山,さんぽうやま,,,奥秩父,2483,35.9175,138.7277778,埼玉県 長野県,関東山地,☓
348,甲武信ヶ岳,こぶしがたけ,,,奥秩父,2475,35.90888889,138.7288889,埼玉県 山梨県 長野県,関東山地,日本百名山
349,横尾山,よこおやま,,,奥秩父,1818,35.91888889,138.5211111,山梨県 長野県,関東山地,☓
350,瑞牆山,みずがきやま,,,奥秩父,2230,35.89333333,138.5919444,山梨県,関東山地,日本百名山
351,金峰山,きんぷさん,,,奥秩父,2599,35.87138889,138.6252778,山梨県 長野県,関東山地,日本百名山
352,朝日岳,あさひだけ,,,奥秩父,2579,35.87444444,138.6425,山梨県 長野県,関東山地,☓
353,国師ヶ岳,こくしがたけ,,,奥秩父,2592,35.87083333,138.6730556,山梨県 長野県,関東山地,
354,北奥千丈岳,きたおくせんじょうだけ,,,奥秩父,2601,35.86861111,138.6708333,山梨県,関東山地,☓
355,乾徳山,けんとくさん,,,,2031,35.82305556,138.715,山梨県,関東山地,日本二百名山
356,小楢山,こならやま,,,,1713,35.78166667,138.6641667,山梨県,関東山地,
357,茅ヶ岳,かやがたけ,,,,1704,35.795,138.5138889,山梨県,関東山地,日本二百名山
358,堂平山,どうだいらさん,,,,876,36.00583333,139.19,埼玉県,関東山地,
359,武甲山,ぶこうさん,,,,1304,35.95166667,139.0977778,埼玉県,関東山地,日本二百名山
360,伊豆ヶ岳,いずがたけ,,,,851,35.92694444,139.1605556,埼玉県,関東山地,
361,川乗山,かわのりやま,,,,1363,35.85083333,139.1069444,東京都,関東山地,
362,酉谷山,とりだにやま,,,,1718,35.89722222,139.0102778,埼玉県 東京都,関東山地,
363,雲取山,くもとりやま,,,奥秩父,2017,35.85555556,138.9438889,埼玉県 東京都,関東山地,日本百名山
364,白石山,はくせきさん,,,奥秩父,2036,35.89944444,138.8780556,埼玉県,関東山地,日本二百名山
365,唐松尾山,からまつおやま,,,奥秩父,2109,35.86777778,138.8452778,埼玉県 山梨県,関東山地,
366,大洞山,おおぼらやま,飛龍山,ひりゅうやま,奥秩父,2077,35.84,138.8922222,埼玉県 山梨県,関東山地,
367,鶏冠山,けいかんやま,黒川山,くろかわやま,,1716,35.78861111,138.8358333,山梨県,関東山地,
368,大菩薩嶺,だいぼさつれい,,,,2057,35.74888889,138.8455556,山梨県,関東山地,日本百名山
369,小金沢山,こがねざわやま,,,,2014,35.71694444,138.8566667,山梨県,関東山地,
370,雁ケ腹摺山,がんがはらすりやま,,,,1874,35.68694444,138.885,山梨県,関東山地,
371,権現山,ごんげんやま,,,,1312,35.66777778,139.0213889,山梨県,関東山地,
372,扇山,おうぎやま,,,,1138,35.63722222,139.0138889,山梨県,関東山地,
373,三頭山,みとうさん,,,,1531,35.73916667,139.0138889,東京都,関東山地,
374,大岳山,おおだけさん,,,,1266,35.76527778,139.1302778,東京都,関東山地,日本二百名山
375,陣馬山,じんばさん,,,,855,35.65222222,139.1666667,東京都 神奈川県,関東山地,
376,高尾山,たかおさん,,,,599,35.62527778,139.2436111,東京都,関東山地,
377,清澄山,きよすみやま,妙見山,みょうけんやま,,377,35.1625,140.1522222,千葉県,房総・三浦,
378,鹿野山,かのうざん,,,,379,35.25555556,139.9716667,千葉県,房総・三浦,
379,鋸山,のこぎりやま,,,,329,35.16027778,139.8408333,千葉県,房総・三浦,
380,富山,とみさん,,,,349,35.09888889,139.8813889,千葉県,房総・三浦,
381,伊予ヶ岳,いよがたけ,,,,336,35.10722222,139.9138889,千葉県,房総・三浦,
382,愛宕山,あたごやま,,,,408,35.115,139.9869444,千葉県,房総・三浦,
383,大山,おおやま,,,,193,34.96416667,139.7777778,千葉県,房総・三浦,
384,大楠山,おおぐすやま,,,,241,35.25,139.6280556,神奈川県,房総・三浦,
385,大山,おおやま,,,丹沢,1252,35.44083333,139.2313889,神奈川県,丹沢山地,
386,蛭ヶ岳,ひるがたけ,,,丹沢,1673,35.48638889,139.1388889,神奈川県,丹沢山地,
387,丹沢山,たんざわさん,,,丹沢,1567,35.47416667,139.1627778,神奈川県,丹沢山地,日本百名山
388,塔ノ岳,とうのだけ,,,丹沢,1491,35.45416667,139.1633333,神奈川県,丹沢山地,
389,大室山,おおむろやま,,,丹沢,1587,35.51083333,139.0686111,神奈川県 山梨県,丹沢山地,
390,御正体山,みしょうたいやま,,,,1681,35.48694444,138.9316667,山梨県,丹沢山地,日本二百名山
391,菰釣山,こもつるしやま,,,,1379,35.46388889,138.9786111,神奈川県 山梨県,丹沢山地,
392,三ッ峠山,みつとうげやま,,,,1785,35.54916667,138.8091667,山梨県,富士山とその周辺,日本二百名山
393,黒岳,くろたけ,,,,1793,35.55194444,138.7494444,山梨県,富士山とその周辺,
394,釈迦ヶ岳,しゃかがたけ,,,,1641,35.56305556,138.7202778,山梨県,富士山とその周辺,
395,節刀ヶ岳,せっとうがたけ,,,,1736,35.52861111,138.6833333,山梨県,富士山とその周辺,
396,富士山,ふじさん,,,,3776,35.36083333,138.7275,山梨県 静岡県,富士山とその周辺,日本百名山
397,愛鷹山,あしたかやま,越前岳,えちぜんだけ,,1504,35.23805556,138.7938889,静岡県,富士山とその周辺,日本二百名山
398,毛無山,けなしやま,,,,1964,35.41583333,138.5438889,山梨県 静岡県,富士山とその周辺,日本二百名山
399,天子ヶ岳,てんしがたけ,,,,1330,35.32916667,138.5366667,静岡県,富士山とその周辺,
400,箱根山,はこねやま,神山,かみやま,,1438,35.23333333,139.0208333,神奈川県,箱根山・伊豆半島,
401,金時山,きんときざん,,,,1212,35.28972222,139.005,静岡県 神奈川県,箱根山・伊豆半島,
402,玄岳,くろたけ,,,,798,35.08166667,139.0280556,静岡県,箱根山・伊豆半島,
403,大室山,おおむろやま,,,,580,34.90305556,139.0947222,静岡県,箱根山・伊豆半島,
404,天城山,あまぎさん,万三郎岳,ばんざぶろうだけ,,1406,34.86277778,139.0016667,静岡県,箱根山・伊豆半島,日本百名山
405,達磨山,だるまやま,,,,982,34.955,138.8391667,静岡県,箱根山・伊豆半島,
406,長九郎山,ちょうくろうやま,,,,996,34.78833333,138.8680556,静岡県,箱根山・伊豆半島,
407,三原山,みはらやま,,,,758,34.72444444,139.3944444,東京都,伊豆諸島（大島）,
408,宮塚山,みやつかやま,,,,508,34.52027778,139.2791667,東京都,伊豆諸島（利島）,
409,天上山,てんじょうさん,,,,572,34.21944444,139.1530556,東京都,伊豆諸島（神津島）,
410,雄山,おやま,,,,775,34.09361111,139.5261111,東京都,伊豆諸島（三宅島）,
411,御山,おやま,,,,851,33.87444444,139.6019444,東京都,伊豆諸島（御蔵島）,
412,西山,にしやま,,,,854,33.13694444,139.7661111,東京都,伊豆諸島（八丈島）,
413,硫黄山,いおうやま,,,,394,30.48388889,140.3030556,東京都,伊豆諸島（鳥島）,
414,中央山,ちゅうおうざん,,,,320,27.07333333,142.2186111,東京都,小笠原諸島（父島）,
415,乳房山,ちぶさやま,,,,463,26.65944444,142.1613889,東京都,小笠原諸島（母島）,
416,榊ヶ峰,さかきがみね,,,,792,25.42805556,141.2808333,東京都,小笠原諸島（北硫黄島）,
417,摺鉢山,すりばちやま,,,,170,24.75055556,141.2891667,東京都,小笠原諸島（硫黄島）,
418,南硫黄島,みなみいおうじま,,,,916,24.23388889,141.4633333,東京都,小笠原諸島（南硫黄島）,
419,金北山,きんぽくさん,,,,1172,38.10388889,138.3497222,新潟県,佐渡,
420,大地山,おおじやま,,,,646,37.95861111,138.4797222,新潟県,佐渡,
421,弥彦山,やひこやま,,,,634,37.70472222,138.8088889,新潟県,東頸城丘陵,
422,米山,よねやま,,,,993,37.28944444,138.4838889,新潟県,東頸城丘陵,
423,黒姫山,くろひめさん,,,,891,37.22611111,138.5922222,新潟県,東頸城丘陵,
424,菱ヶ岳,ひしがたけ,,,,1129,37.03222222,138.4933333,新潟県,東頸城丘陵,
425,斑尾山,まだらおやま,,,,1382,36.8375,138.2744444,長野県,東頸城丘陵,
426,鉾ヶ岳,ほこがたけ,,,,1316,37.02861111,138.0263889,新潟県,妙高山とその周辺,
427,駒ヶ岳,こまがたけ,,,,1498,36.94277778,137.9483333,新潟県,妙高山とその周辺,
428,鋸岳,のこぎりだけ,,,,1631,36.93194444,137.9688889,新潟県,海谷山地,
429,焼山,やけやま,,,妙高,2400,36.92083333,138.0358333,新潟県,妙高山とその周辺,
430,雨飾山,あまかざりやま,,,妙高,1963,36.90194444,137.9625,新潟県 長野県,妙高山とその周辺,日本百名山
431,火打山,ひうちやま,,,妙高,2462,36.92277778,138.0680556,新潟県,妙高山とその周辺,日本百名山
432,妙高山,みょうこうさん,,,妙高,2454,36.89138889,138.1133333,新潟県,妙高山とその周辺,日本百名山
433,黒姫山,くろひめやま,,,,2053,36.81333333,138.1272222,長野県,妙高山とその周辺,日本二百名山
434,高妻山,たかつまやま,,,,2353,36.8,138.0519444,新潟県 長野県,妙高山とその周辺,日本百名山
435,戸隠山,とがくしやま,,,,1904,36.77027778,138.055,長野県,妙高山とその周辺,日本二百名山
436,飯縄山,いいづなやま,,,,1917,36.73944444,138.1336111,長野県,妙高山とその周辺,日本二百名山
437,虫倉山,むしくらやま,,,,1378,36.64972222,138.0191667,長野県,妙高山とその周辺,
438,聖山,ひじりやま,,,,1447,36.48416667,138.0213889,長野県,筑摩山地,
439,冠着山,かむりきやま,姨捨山,おばすてやま,,1252,36.46888889,138.1066667,長野県,筑摩山地,
440,美ヶ原,うつくしがはら,王ヶ頭,おうがとう,,2034,36.22583333,138.1075,長野県,筑摩山地,日本百名山
441,鉢伏山,はちぶせやま,,,,1929,36.16305556,138.0591667,長野県,筑摩山地,
442,霧ヶ峰,きりがみね,車山,くるまやま,,1925,36.10305556,138.1966667,長野県,霧ヶ峰・八ヶ岳,日本百名山
443,蓼科山,たてしなやま,,,八ヶ岳,2531,36.10361111,138.295,長野県,霧ヶ峰・八ヶ岳,日本百名山
444,横岳,よこだけ,,,八ヶ岳,2480,36.0875,138.32,長野県,霧ヶ峰・八ヶ岳,
445,縞枯山,しまがれやま,,,八ヶ岳,2403,36.07555556,138.3311111,長野県,霧ヶ峰・八ヶ岳,
446,天狗岳,てんぐだけ,,,八ヶ岳,2646,36.01916667,138.3555556,長野県,霧ヶ峰・八ヶ岳,日本二百名山
447,峰の松目,みねのまつめ,,,八ヶ岳,2568,35.99694444,138.3505556,長野県,霧ヶ峰・八ヶ岳,☓
448,硫黄岳,いおうだけ,,,八ヶ岳,2760,35.99861111,138.37,長野県,霧ヶ峰・八ヶ岳,
449,横岳,よこだけ,,,八ヶ岳,2829,35.98472222,138.3736111,長野県,霧ヶ峰・八ヶ岳,
450,赤岳,あかだけ,,,八ヶ岳,2899,35.97083333,138.37,長野県 山梨県,霧ヶ峰・八ヶ岳,日本百名山
451,阿弥陀岳,あみだだけ,,,八ヶ岳,2805,35.97222222,138.3588889,長野県,霧ヶ峰・八ヶ岳,
452,権現岳,ごんげんだけ,,,八ヶ岳,2715,35.94972222,138.3597222,山梨県,霧ヶ峰・八ヶ岳,
453,西岳,にしだけ,,,八ヶ岳,2398,35.95,138.335,長野県,霧ヶ峰・八ヶ岳,☓
454,三ッ頭,みつがしら,,,八ヶ岳,2580,35.94222222,138.3638889,山梨県,霧ヶ峰・八ヶ岳,☓
455,編笠山,あみがさやま,,,八ヶ岳,2524,35.94166667,138.345,山梨県 長野県,霧ヶ峰・八ヶ岳,
456,黒姫山,くろひめやま,,,,1221,36.97666667,137.79,新潟県,飛騨山脈北部,
457,明星山,みょうじょうさん,,,,1188,36.94083333,137.8219444,新潟県,飛騨山脈北部,
458,犬ヶ岳,いぬがだけ,,,,1592,36.90694444,137.7155556,新潟県 富山県,飛騨山脈北部,
459,朝日岳,あさひだけ,,,北アルプス,2418,36.82666667,137.73,新潟県 富山県,後立山連峰,
460,雪倉岳,ゆきくらだけ,,,北アルプス,2611,36.79472222,137.7541667,新潟県 富山県,後立山連峰,日本二百名山
461,鉢ヶ岳,はちがたけ,,,北アルプス,2563,36.78027778,137.7494444,新潟県 富山県,後立山連峰,☓
462,小蓮華山,これんげさん,,,北アルプス,2766,36.77361111,137.7761111,新潟県 長野県,後立山連峰,☓
463,乗鞍岳,のりくらだけ,,,北アルプス,2469,36.78861111,137.7991667,新潟県 長野県,後立山連峰,☓
464,風吹岳,かざふきだけ,,,北アルプス,1888,36.81416667,137.8388889,長野県,後立山連峰,☓
465,白馬岳,しろうまだけ,,,北アルプス,2932,36.75861111,137.7586111,富山県 長野県,後立山連峰,日本百名山
466,旭岳,あさひだけ,,,北アルプス,2867,36.75777778,137.7458333,富山県,後立山連峰,☓
467,清水岳,しょうずだけ,,,北アルプス,2603,36.76472222,137.7188889,富山県,後立山連峰,☓
468,杓子岳,しゃくしだけ,,,北アルプス,2812,36.74055556,137.7591667,富山県 長野県,後立山連峰,☓
469,鑓ヶ岳,やりがたけ,,,北アルプス,2903,36.73138889,137.7552778,富山県 長野県,後立山連峰,☓
470,唐松岳,からまつだけ,,,北アルプス,2696,36.68722222,137.7547222,富山県 長野県,後立山連峰,
471,五龍岳,ごりゅうだけ,,,北アルプス,2814,36.65833333,137.7527778,富山県,後立山連峰,日本百名山
472,鹿島槍ヶ岳,かしまやりがたけ,,,北アルプス,2889,36.62444444,137.7469444,富山県 長野県,後立山連峰,日本百名山
473,爺ヶ岳,じいがたけ,,,北アルプス,2670,36.58833333,137.7508333,富山県 長野県,後立山連峰,
474,岩小屋沢岳,いわごやざわだけ,,,北アルプス,2630,36.57694444,137.7133333,富山県 長野県,後立山連峰,☓
475,鳴沢岳,なるさわだけ,,,北アルプス,2641,36.56861111,137.6955556,富山県 長野県,後立山連峰,
476,赤沢岳,あかざわだけ,,,北アルプス,2678,36.56194444,137.6875,富山県 長野県,後立山連峰,☓
477,スバリ岳,すばりだけ,,,北アルプス,2752,36.54416667,137.685,富山県 長野県,後立山連峰,☓
478,針ノ木岳,はりのきだけ,,,北アルプス,2821,36.53805556,137.6844444,富山県 長野県,後立山連峰,日本二百名山
479,蓮華岳,れんげだけ,,,北アルプス,2799,36.53583333,137.7105556,富山県 長野県,後立山連峰,
480,北葛岳,きたくずだけ,,,北アルプス,2551,36.5175,137.7055556,富山県 長野県,後立山連峰,☓
481,不動岳,ふどうだけ,,,北アルプス,2601,36.49527778,137.6672222,富山県 長野県,後立山連峰,
482,南沢岳,みなみさわだけ,,,北アルプス,2626,36.49,137.6530556,富山県 長野県,後立山連峰,☓
483,烏帽子岳,えぼしだけ,,,北アルプス,2628,36.47944444,137.6508333,富山県 長野県,後立山連峰,日本二百名山
484,三ッ岳,みつだけ,,,北アルプス,2845,36.45472222,137.6494444,富山県 長野県,黒部源頭,
485,野口五郎岳,のぐちごろうだけ,,,北アルプス,2924,36.43277778,137.6377778,富山県 長野県,黒部源頭,
486,南真砂岳,みなみまさごだけ,,,北アルプス,2713,36.41333333,137.6416667,長野県,黒部源頭,☓
487,赤牛岳,あかうしだけ,,,北アルプス,2864,36.46166667,137.6033333,富山県,黒部源頭,日本二百名山
488,水晶岳,すいしょうだけ,黒岳,くろだけ,北アルプス,2986,36.42638889,137.6027778,富山県,黒部源頭,日本百名山
489,祖父岳,じいだけ,,,北アルプス,2825,36.41111111,137.5911111,富山県,黒部源頭,☓
490,鷲羽岳,わしばだけ,,,北アルプス,2924,36.40305556,137.6052778,富山県 長野県,黒部源頭,日本百名山
491,三俣蓮華岳,みつまたれんげだけ,,,北アルプス,2841,36.39,137.5877778,富山県 岐阜県 長野県,黒部源頭,
492,僧ヶ岳,そうがだけ,,,,1855,36.76166667,137.5636111,富山県,立山連峰,
493,毛勝山,けかつやま,,,,2415,36.70111111,137.5908333,富山県,立山連峰,日本二百名山
494,猫又山,ねこまたやま,,,,2378,36.68111111,137.5902778,富山県,立山連峰,☓
495,池平山,いけのだいらやま,,,北アルプス,2561,36.64111111,137.6258333,富山県,立山連峰,☓
496,剱岳,つるぎだけ,,,北アルプス,2999,36.62333333,137.6169444,富山県,立山連峰,日本百名山
497,別山,べっさん,,,北アルプス,2880,36.5975,137.6202778,富山県,立山連峰,☓
498,剱御前,つるぎごぜん,,,北アルプス,2777,36.6025,137.6088889,富山県,立山連峰,☓
499,奥大日岳,おくだいにちだけ,,,北アルプス,2611,36.59833333,137.5808333,富山県,立山連峰,日本二百名山
500,大日岳,だいにちだけ,,,北アルプス,2501,36.59944444,137.55,富山県,立山連峰,
501,真砂岳,まさごだけ,,,北アルプス,2861,36.58666667,137.62,富山県,立山連峰,☓
502,立山,たてやま,大汝山,おおなんじやま,北アルプス,3015,36.57583333,137.6197222,富山県,立山連峰,日本百名山
503,国見岳,くにみだけ,,,北アルプス,2621,36.57111111,137.5897222,富山県,立山連峰,☓
504,龍王岳,りゅうおうだけ,,,北アルプス,2872,36.56472222,137.6072222,富山県,立山連峰,
505,浄土山,じょうどさん,,,北アルプス,2831,36.56833333,137.6036111,富山県,立山連峰,☓
506,鷲岳,わしだけ,,,北アルプス,2617,36.54194444,137.5872222,富山県,立山連峰,
507,鳶山,とんびやま,,,北アルプス,2616,36.53416667,137.5858333,富山県,立山連峰,☓
508,越中沢岳,えっちゅうざわだけ,,,北アルプス,2592,36.515,137.5830556,富山県,立山連峰,
509,鍬崎山,くわさきやま,,,,2090,36.54,137.4780556,富山県,飛騨山脈北部,
510,薬師岳,やくしだけ,,,北アルプス,2926,36.46888889,137.5447222,富山県,立山連峰,日本百名山
511,北ノ俣岳,きたのまただけ,上ノ岳,かみのだけ,北アルプス,2662,36.42111111,137.5122222,富山県 岐阜県,立山連峰,☓
512,黒部五郎岳,くろべごろうだけ,中ノ俣岳,なかのまただけ,北アルプス,2840,36.3925,137.54,富山県 岐阜県,立山連峰,日本百名山
513,双六岳,すごろくだけ,,,北アルプス,2860,36.37194444,137.5872222,長野県 岐阜県,笠ヶ岳山塊,
514,樅沢岳,もみさわだけ,,,北アルプス,2755,36.36666667,137.6077778,長野県 岐阜県,笠ヶ岳山塊,☓
515,弓折岳,ゆみおりだけ,,,北アルプス,2592,36.34944444,137.5966667,岐阜県,笠ヶ岳山塊,☓
516,抜戸岳,ぬけどだけ,,,北アルプス,2813,36.32777778,137.575,岐阜県,笠ヶ岳山塊,☓
517,笠ヶ岳,かさがたけ,,,北アルプス,2898,36.31555556,137.5502778,岐阜県,笠ヶ岳山塊,日本百名山
518,錫杖岳,しゃくじょうだけ,,,北アルプス,2168,36.28194444,137.5472222,岐阜県,笠ヶ岳山塊,
519,硫黄岳,いおうだけ,,,北アルプス,2554,36.38055556,137.6505556,長野県,笠ヶ岳山塊,☓
520,唐沢岳,からさわだけ,,,北アルプス,2633,36.46111111,137.7166667,長野県,常念山脈,☓
521,餓鬼岳,がきだけ,,,北アルプス,2647,36.44722222,137.7361111,長野県,常念山脈,日本二百名山
522,燕岳,つばくろだけ,,,北アルプス,2763,36.40694444,137.7127778,長野県,常念山脈,日本二百名山
523,有明山,ありあけやま,,,,2268,36.39111111,137.7705556,長野県,飛騨山脈北部,日本二百名山
524,大天井岳,だいてんじょうだけ,,,北アルプス,2922,36.365,137.7011111,長野県,常念山脈,日本二百名山
525,東天井岳,ひがしてんじょうだけ,,,北アルプス,2814,36.35333333,137.7155556,長野県,常念山脈,☓
526,横通岳,よことおしだけ,,,北アルプス,2767,36.3425,137.7269444,長野県,常念山脈,☓
527,常念岳,じょうねんだけ,,,北アルプス,2857,36.32555556,137.7275,長野県,常念山脈,日本百名山
528,蝶ヶ岳,ちょうがたけ,,,北アルプス,2677,36.2875,137.7261111,長野県,常念山脈,
529,大滝山,おおたきやま,,,北アルプス,2616,36.27416667,137.7433333,長野県,常念山脈,☓
530,赤岩岳,あかいわだけ,,,北アルプス,2769,36.34333333,137.6841667,長野県,常念山脈,☓
531,西岳,にしだけ,,,北アルプス,2758,36.33722222,137.6794444,長野県,常念山脈,☓
532,赤沢山,あかさわやま,,,北アルプス,2670,36.32916667,137.6797222,長野県,常念山脈,☓
533,槍ヶ岳,やりがたけ,,,北アルプス,3180,36.34194444,137.6475,長野県,穂高連峰,日本百名山
534,大喰岳,おおばみだけ,,,北アルプス,3101,36.33583333,137.6458333,長野県 岐阜県,穂高連峰,☓
535,中岳,なかだけ,,,北アルプス,3084,36.32972222,137.6466667,長野県 岐阜県,穂高連峰,
536,南岳,みなみだけ,,,北アルプス,3033,36.31888889,137.6508333,長野県 岐阜県,穂高連峰,☓
537,北穂高岳,きたほたかだけ,,,北アルプス,3106,36.3025,137.6519444,長野県 岐阜県,穂高連峰,
538,涸沢岳,からさわだけ,,,北アルプス,3110,36.29583333,137.6469444,長野県 岐阜県,穂高連峰,☓
539,奥穂高岳,おくほたかだけ,,,北アルプス,3190,36.28916667,137.6480556,長野県 岐阜県,穂高連峰,日本百名山
540,前穂高岳,まえほたかだけ,,,北アルプス,3090,36.28194444,137.6605556,長野県,穂高連峰,
541,西穂高岳,にしほたかだけ,,,北アルプス,2909,36.27888889,137.6291667,長野県 岐阜県,穂高連峰,
542,焼岳,やけだけ,,,北アルプス,2455,36.22694444,137.5869444,長野県 岐阜県,穂高連峰,日本百名山
543,霞沢岳,かすみざわだけ,,,,2646,36.22111111,137.6405556,長野県,飛騨山脈南部,日本二百名山
544,十石山,じゅっこくやま,,,,2525,36.16361111,137.5905556,長野県 岐阜県,飛騨山脈南部,
545,輝山,てらしやま,,,,2063,36.19416667,137.5222222,岐阜県,飛騨山脈南部,
546,乗鞍岳,のりくらだけ,,,,3026,36.10638889,137.5536111,岐阜県 長野県,飛騨山脈南部,日本百名山
547,鎌ヶ峰,かまがみね,,,,2121,36.02666667,137.5991667,長野県 岐阜県,飛騨山脈南部,
548,鉢盛山,はちもりやま,,,,2447,36.08666667,137.7547222,長野県,飛騨山脈南部,
549,御嶽山,おんたけさん,,,,3067,35.89277778,137.4802778,長野県,御嶽山とその周辺,日本百名山
550,小秀山,こひでやま,,,,1982,35.78555556,137.3969444,長野県 岐阜県,御嶽山とその周辺,日本二百名山
551,奥三界岳,おくさんがいだけ,,,,1811,35.68166667,137.5072222,岐阜県 長野県,御嶽山とその周辺,
552,尾城山,おしろやま,,,,1133,35.69583333,137.3438889,岐阜県,御嶽山とその周辺,
553,二ッ森山,ふたつもりやま,,,,1223,35.57194444,137.4002778,岐阜県,御嶽山とその周辺,
554,経ヶ岳,きょうがたけ,,,,2296,35.91277778,137.8625,長野県,木曽山脈,日本二百名山
555,大棚入山,おおだないりやま,,,中央アルプス,2375,35.84805556,137.81,長野県,木曽山脈,☓
556,将棊頭山,しょうぎがしらやま,,,中央アルプス,2730,35.80333333,137.8269444,長野県,木曽山脈,
557,茶臼山,ちゃうすやま,,,中央アルプス,2658,35.81472222,137.8216667,長野県,木曽山脈,☓
558,木曽駒ヶ岳,きそこまがたけ,,,中央アルプス,2956,35.78944444,137.8044444,長野県,木曽山脈,日本百名山
559,宝剣岳,ほうけんだけ,,,中央アルプス,2931,35.78138889,137.8091667,長野県,木曽山脈,☓
560,麦草岳,むぎくさだけ,,,中央アルプス,2733,35.79666667,137.7861111,長野県,木曽山脈,☓
561,三沢岳,さんのさわだけ,,,中央アルプス,2847,35.76666667,137.7941667,長野県,木曽山脈,☓
562,檜尾岳,ひのきおだけ,,,中央アルプス,2728,35.75194444,137.8133333,長野県,木曽山脈,☓
563,熊沢岳,くまざわだけ,,,中央アルプス,2778,35.73916667,137.8033333,長野県,木曽山脈,
564,東川岳,ひがしかわだけ,,,中央アルプス,2671,35.72527778,137.8055556,長野県,木曽山脈,☓
565,空木岳,うつぎだけ,,,中央アルプス,2864,35.71888889,137.8172222,長野県,木曽山脈,日本百名山
566,南駒ヶ岳,みなみこまがたけ,,,中央アルプス,2841,35.70138889,137.8108333,長野県,木曽山脈,日本二百名山
567,赤梛岳,あかなぎだけ,,,中央アルプス,2798,35.70611111,137.8155556,長野県,木曽山脈,☓
568,仙涯嶺,せんがいれい,,,中央アルプス,2734,35.69222222,137.8136111,長野県,木曽山脈,☓
569,越百山,こすもやま,,,中央アルプス,2614,35.67944444,137.8033333,長野県,木曽山脈,
570,安平路山,あんぺいじやま,,,中央アルプス,2363,35.63055556,137.7744444,長野県,木曽山脈,日本二百名山
571,摺古木山,すりこぎやま,,,中央アルプス,2169,35.61277778,137.7375,長野県,木曽山脈,☓
572,南木曽岳,なぎそだけ,,,,1679,35.5925,137.6441667,長野県,木曽山脈,
573,風越山,かざこしやま,権現山,ごんげんやま,,1535,35.54944444,137.7838889,長野県,木曽山脈,
574,恵那山,えなさん,,,,2191,35.44361111,137.5972222,長野県 岐阜県,木曽山脈,日本百名山
575,守屋山,もりやさん,,,,1651,35.9675,138.0933333,長野県,赤石山脈北部,
576,入笠山,にゅうがさやま,,,,1955,35.89638889,138.1716667,長野県,赤石山脈北部,
577,鋸岳,のこぎりだけ,,,南アルプス,2685,35.77888889,138.21,山梨県 長野県,赤石山脈北部,日本二百名山
578,甲斐駒ヶ岳,かいこまがたけ,,,南アルプス,2967,35.75805556,138.2366667,山梨県 長野県,赤石山脈北部,日本百名山
579,駒津峰,こまつみね,,,南アルプス,2752,35.75472222,138.2308333,山梨県 長野県,赤石山脈北部,☓
580,双児山,ふたごやま,,,南アルプス,2649,35.75083333,138.2213889,山梨県 長野県,赤石山脈北部,☓
581,アサヨ峰,あさよみね,,,南アルプス,2799,35.73166667,138.2413889,山梨県,赤石山脈北部,☓
582,栗沢山,くりさわやま,,,南アルプス,2714,35.73805556,138.2341667,山梨県,赤石山脈北部,☓
583,高嶺,たかみね,,,南アルプス,2779,35.70972222,138.2877778,山梨県,赤石山脈北部,☓
584,地蔵ヶ岳,じぞうがたけ,,,南アルプス,2764,35.71222222,138.2986111,山梨県,鳳凰山系,
585,鳳凰山,ほうおうざん,観音ヶ岳,かんのんがだけ,南アルプス,2841,35.70166667,138.3047222,山梨県,鳳凰山系,日本百名山
586,薬師ヶ岳,やくしがだけ,,,南アルプス,2780,35.69611111,138.3116667,山梨県,鳳凰山系,
587,辻山,つじやま,,,南アルプス,2585,35.67638889,138.3219444,山梨県,赤石山脈北部,☓
588,櫛形山,くしがたやま,,,,2052,35.58666667,138.3691667,山梨県,赤石山脈北部,日本二百名山
589,仙丈ヶ岳,せんじょうがたけ,,,南アルプス,3033,35.72,138.1836111,山梨県 長野県,赤石山脈北部,日本百名山
590,伊那荒倉岳,いなあらくらだけ,,,南アルプス,2519,35.68916667,138.1941667,山梨県 長野県,赤石山脈北部,
591,小太郎山,こたろうやま,,,南アルプス,2725,35.70083333,138.24,山梨県,赤石山脈北部,☓
592,北岳,きただけ,,,南アルプス,3193,35.67444444,138.2388889,山梨県,白根山系,日本百名山
593,間ノ岳,あいのだけ,,,南アルプス,3190,35.64611111,138.2283333,山梨県 静岡県,白根山系,日本百名山
594,西農鳥岳,にしのうとりだけ,,,南アルプス,3051,35.62472222,138.2302778,山梨県 静岡県,白根山系,☓
595,農鳥岳,のうとりだけ,,,南アルプス,3026,35.62111111,138.2369444,山梨県 静岡県,白根山系,日本二百名山
596,大唐松山,おおからまつやま,,,南アルプス,2561,35.62166667,138.2694444,山梨県,赤石山脈北部,☓
597,広河内岳,ひろごうちだけ,,,南アルプス,2895,35.60611111,138.2358333,山梨県 静岡県,赤石山脈北部,
598,大籠岳,おおかごだけ,,,南アルプス,2767,35.59305556,138.2433333,山梨県 静岡県,赤石山脈北部,☓
599,笹山,ささやま,,,南アルプス,2733,35.57111111,138.2438889,山梨県 静岡県,赤石山脈北部,☓
600,黒檜山,くろべいやま,,,,2541,35.64444444,138.1861111,長野県,赤石山脈北部,
601,安倍荒倉岳,あべあらくらだけ,,,南アルプス,2693,35.62305556,138.2030556,長野県 静岡県,赤石山脈北部,☓
602,新蛇抜山,しんじゃぬけやま,,,南アルプス,2667,35.60722222,138.2052778,長野県 静岡県,赤石山脈北部,
603,北荒川岳,きたあらかわだけ,,,南アルプス,2698,35.59472222,138.1944444,長野県,赤石山脈北部,
604,塩見岳,しおみだけ,,,南アルプス,3047,35.57388889,138.1830556,長野県 静岡県,赤石山脈北部,日本百名山
605,蝙蝠岳,こうもりだけ,,,南アルプス,2865,35.55694444,138.2072222,静岡県,赤石山脈北部,
606,徳右衛門岳,とくえもんだけ,,,南アルプス,2599,35.53944444,138.2263889,静岡県,赤石山脈北部,☓
607,本谷山,ほんたにやま,,,南アルプス,2658,35.57083333,138.1516667,長野県 静岡県,赤石山脈北部,☓
608,戸倉山,とくらやま,,,,1681,35.745,138.0519444,長野県,赤石山脈北部,
609,烏帽子岳,えぼしだけ,,,南アルプス,2726,35.55361111,138.1536111,長野県 静岡県,赤石山脈南部,☓
610,小河内岳,こごうちだけ,,,南アルプス,2802,35.53777778,138.1530556,長野県 静岡県,赤石山脈南部,
611,小日影山,こひかげやま,,,南アルプス,2506,35.52527778,138.1263889,長野県,赤石山脈南部,☓
612,大日影山,おおひかげやま,,,南アルプス,2573,35.52222222,138.1383333,長野県 静岡県,赤石山脈南部,☓
613,板屋岳,いたやだけ,,,南アルプス,2646,35.51805556,138.1461111,長野県 静岡県,赤石山脈南部,☓
614,悪沢岳,わるさわだけ,東岳,ひがしだけ,南アルプス,3141,35.50083333,138.1825,静岡県,赤石山脈南部,日本百名山
615,荒川岳,あらかわだけ,中岳,なかだけ,南アルプス,3084,35.49666667,138.1669444,静岡県,赤石山脈南部,
616,前岳,まえだけ,,,南アルプス,3068,35.49416667,138.1641667,長野県 静岡県,赤石山脈南部,☓
617,赤石岳,あかいしだけ,,,南アルプス,3121,35.46111111,138.1572222,長野県 静岡県,赤石山脈南部,日本百名山
618,奥茶臼山,おくちゃうすやま,,,,2474,35.485,138.0691667,長野県,赤石山脈南部,
619,鬼面山,きめんざん,,,,1890,35.49194444,137.9902778,長野県,赤石山脈南部,
620,大沢岳,おおさわだけ,,,南アルプス,2820,35.44888889,138.1202778,長野県 静岡県,赤石山脈南部,☓
621,中盛丸山,なかもりまるやま,,,南アルプス,2807,35.44277778,138.1219444,長野県 静岡県,赤石山脈南部,☓
622,兎岳,うさぎだけ,,,南アルプス,2818,35.42861111,138.1211111,長野県 静岡県,赤石山脈南部,
623,聖岳,ひじりだけ,,,南アルプス,3013,35.42277778,138.1397222,長野県 静岡県,赤石山脈南部,日本百名山
624,上河内岳,かみこうちだけ,,,南アルプス,2803,35.38972222,138.1527778,静岡県,赤石山脈南部,日本二百名山
625,茶臼岳,ちゃうすだけ,,,南アルプス,2604,35.36916667,138.1405556,長野県 静岡県,赤石山脈南部,
626,仁田岳,にっただけ,,,南アルプス,2524,35.36083333,138.1272222,静岡県,赤石山脈南部,☓
627,光岳,てかりだけ,,,南アルプス,2592,35.33805556,138.0838889,静岡県 長野県,赤石山脈南部,日本百名山
628,池口岳,いけぐちだけ,,,南アルプス,2392,35.33027778,138.0383333,長野県 静岡県,赤石山脈南部,日本二百名山
629,白倉山,しらくらやま,,,,1851,35.30166667,137.9922222,長野県 静岡県,赤石山脈南部,
630,熊伏山,くまぶしやま,,,,1654,35.26333333,137.895,長野県,赤石山脈南部,
631,大無間山,だいむげんざん,,,南アルプス,2330,35.25611111,138.1616667,静岡県,赤石山脈南部,日本二百名山
632,不動岳,ふどうがたけ,,,,2172,35.23555556,138.0411111,静岡県,赤石山脈南部,
633,黒法師岳,くろぼうしがたけ,,,,2068,35.19611111,138.0294444,静岡県,赤石山脈南部,
634,蕎麦粒山,そばつぶやま,,,,1627,35.12611111,138.0352778,静岡県,赤石山脈南部,
635,高塚山,たかつかやま,,,,1621,35.11555556,138.0036111,静岡県,赤石山脈南部,
636,京丸山,きょうまるやま,,,,1470,35.09611111,137.9658333,静岡県,赤石山脈南部,
637,秋葉山,あきはさん,,,,885,34.98166667,137.8661111,静岡県,赤石山脈南部,
638,八高山,はっこうさん,,,,832,34.9075,138.0566667,静岡県,赤石山脈南部,
639,笊ヶ岳,ざるがたけ,,,,2629,35.42416667,138.2594444,山梨県 静岡県,赤石山脈南部,日本二百名山
640,布引山,ぬのびきやま,,,,2584,35.40861111,138.2583333,山梨県 静岡県,赤石山脈南部,
641,青薙山,あおなぎやま,,,,2406,35.36972222,138.2286111,静岡県,赤石山脈南部,
642,身延山,みのぶさん,,,,1153,35.3975,138.4163889,山梨県,身延山地,
643,七面山,しちめんざん,,,,1989,35.36944444,138.3488889,山梨県,身延山地,日本二百名山
644,山伏,やんぶし,,,,2013,35.30444444,138.2852778,山梨県 静岡県,身延山地,
645,十枚山,じゅうまいざん,,,,1726,35.25361111,138.3780556,静岡県 山梨県,身延山地,
646,篠井山,しのいさん,,,,1394,35.24777778,138.4263889,山梨県,身延山地,
647,高ドッキョウ,たかどっきょう,,,,1133,35.17861111,138.4380556,山梨県 静岡県,身延山地,
648,竜爪山,りゅうそうざん,,,,1051,35.08833333,138.4036111,静岡県,身延山地,
649,久能山,くのうざん,,,,216,34.96611111,138.4680556,静岡県,身延山地,
650,茶臼山,ちゃうすやま,,,,1416,35.2275,137.6555556,長野県 愛知県,美濃・三河高原,
651,鷹ノ巣山,たかのすやま,,,,1153,35.1525,137.495,愛知県,美濃・三河高原,
652,鳳来寺山,ほうらいじさん,,,,695,34.98416667,137.5827778,愛知県,美濃・三河高原,
653,本宮山,ほんぐうさん,,,,789,34.90972222,137.4205556,愛知県,美濃・三河高原,
654,猿投山,さなげやま,,,,629,35.20583333,137.1669444,愛知県,美濃・三河高原,
655,金華山,きんかざん,,,,329,35.43333333,136.7813889,岐阜県,美濃・三河高原,
656,宝立山,ほうりゅうざん,,,,471,37.42861111,137.1625,石川県,能登半島,
657,鉢伏山,はちぶせやま,,,,544,37.37777778,136.9708333,石川県,能登半島,
658,石動山,せきどうさん,,,,564,36.96555556,136.9708333,石川県,宝達丘陵,
659,宝達山,ほうだつさん,,,,637,36.78194444,136.8130556,石川県,宝達丘陵,
660,二上山,ふたがみやま,,,,274,36.79,137.0152778,富山県,宝達丘陵,
661,牛岳,うしだけ,,,,987,36.54111111,137.0316667,富山県,飛騨高地,
662,白木峰,しらきみね,,,,1596,36.41555556,137.1122222,富山県 岐阜県,飛騨高地,
663,金剛堂山,こんごうどうざん,,,,1650,36.37888889,137.0488889,富山県,飛騨高地,日本二百名山
664,人形山,にんぎょうやま,,,,1726,36.34888889,136.9397222,岐阜県 富山県,飛騨高地,
665,三ヶ辻山,みつがつじやま,,,,1764,36.33805556,136.95,岐阜県,飛騨高地,
666,猿ヶ馬場山,さるがばばやま,,,,1875,36.22583333,136.9427778,岐阜県,飛騨高地,
667,御前岳,ごぜんだけ,,,,1816,36.19805556,136.9602778,岐阜県,飛騨高地,
668,大雨見山,おおあまみやま,,,,1336,36.25333333,137.2986111,岐阜県,飛騨高地,
669,位山,くらいやま,,,,1529,36.03833333,137.1966667,岐阜県,飛騨高地,日本二百名山
670,川上岳,かおれだけ,,,,1625,36.00833333,137.1494444,岐阜県,飛騨高地,
671,鷲ヶ岳,わしがたけ,,,,1671,35.94027778,136.9713889,岐阜県,飛騨高地,
672,八乙女山,やおとめやま,,,,756,36.54055556,136.9830556,富山県,白山山地,
673,高清水山,たかしょうずやま,,,,1145,36.47722222,136.9427778,富山県,白山山地,
674,医王山,いおうぜん,,,,939,36.51277778,136.7961111,富山県 石川県,白山山地,
675,口三方岳,くちさんぼうだけ,,,,1269,36.37333333,136.7155556,石川県,白山山地,
676,高三郎山,たかさぶろうやま,,,,1445,36.37111111,136.7736111,石川県,白山山地,
677,大門山,だいもんざん,,,,1572,36.36527778,136.8036111,富山県 石川県,白山山地,
678,大笠山,おおがさやま,,,,1822,36.32055556,136.7897222,富山県 石川県,白山山地,
679,笈ヶ岳,おいずるがだけ,,,,1841,36.29861111,136.7922222,富山県 石川県 岐阜県,白山山地,日本二百名山
680,三方岩岳,さんぽういわだけ,,,,1736,36.25805556,136.8444444,石川県 岐阜県,白山山地,
681,三方崩山,さんぽうくずれやま,,,,2059,36.17888889,136.8602778,岐阜県,白山山地,
682,七倉山,ななくらやま,,,白山,2557,36.17111111,136.7586111,石川県,白山山地,
683,白山,はくさん,,,白山,2702,36.155,136.7713889,石川県 岐阜県,白山山地,日本百名山
684,白山釈迦岳,はくさんしゃかだけ,,,白山,2053,36.15222222,136.7355556,石川県,白山山地,☓
685,別山,べっさん,,,白山,2399,36.10555556,136.7658333,石川県 岐阜県,白山山地,
686,願教寺山,がんきょうじやま,,,,1691,36.05694444,136.7397222,福井県 岐阜県,白山山地,
687,野伏ヶ岳,のぶせがだけ,,,,1674,36.01277778,136.7325,岐阜県 福井県,白山山地,
688,大日ヶ岳,だいにちがたけ,,,,1709,36.00138889,136.8377778,岐阜県,白山山地,日本二百名山
689,赤兎山,あかうさぎやま,,,,1629,36.0675,136.6619444,福井県 石川県,白山山地,
690,経ヶ岳,きょうがだけ,,,,1625,36.04638889,136.6219444,福井県,白山山地,
691,鷲走ヶ岳,わっそうがたけ,,,,1097,36.26583333,136.6155556,石川県,白山山地,
692,大日山,だいにちざん,,,,1368,36.16194444,136.4930556,石川県,白山山地,
693,富士写ヶ岳,ふじしゃがだけ,,,,942,36.18861111,136.3638889,石川県,白山山地,
694,浄法寺山,じょうほうじやま,,,,1053,36.125,136.3927778,福井県,白山山地,
695,国見岳,くにみだけ,,,,656,36.07916667,136.0838889,福井県,越美・伊吹山地,
696,日野山,ひのさん,,,,794,35.85916667,136.2075,福井県,越美・伊吹山地,
697,部子山,へこさん,,,,1464,35.88611111,136.4391667,福井県,越美・伊吹山地,
698,荒島岳,あらしまだけ,,,,1523,35.93416667,136.6013889,福井県,越美・伊吹山地,日本百名山
699,平家岳,へいけがだけ,,,,1442,35.81,136.7188889,福井県,越美・伊吹山地,
700,高賀山,こうがさん,,,,1224,35.67194444,136.8591667,岐阜県,越美・伊吹山地,
701,屏風山,びょうぶざん,,,,1354,35.79694444,136.6266667,福井県 岐阜県,越美・伊吹山地,
702,姥ヶ岳,うばがたけ,,,,1454,35.80944444,136.5058333,福井県,越美・伊吹山地,
703,能郷白山,のうごうはくさん,権現山,ごんげんさん,,1617,35.7625,136.5141667,岐阜県,越美・伊吹山地,日本二百名山
704,冠山,かんむりやま,,,,1257,35.77972222,136.4094444,福井県 岐阜県,越美・伊吹山地,
705,三周ヶ岳,さんしゅうがたけ,,,,1292,35.68361111,136.3,岐阜県,越美・伊吹山地,
706,金糞岳,かなくそだけ,,,,1317,35.55,136.3372222,岐阜県 滋賀県,越美・伊吹山地,
707,伊吹山,いぶきやま,,,,1377,35.41777778,136.4063889,滋賀県,越美・伊吹山地,日本百名山
708,霊仙山,りょうぜんざん,,,鈴鹿,1094,35.27916667,136.3813889,滋賀県,鈴鹿・布引山地,☓
709,笙ヶ岳,しょうがだけ,,,,908,35.28361111,136.5111111,岐阜県,鈴鹿・布引山地,
710,養老山,ようろうさん,,,,859,35.26305556,136.5233333,岐阜県,鈴鹿・布引山地,
711,御池岳,おいけだけ,,,鈴鹿,1247,35.17861111,136.415,滋賀県,鈴鹿・布引山地,
712,竜ヶ岳,りゅうがだけ,,,鈴鹿,1099,35.11944444,136.4452778,滋賀県 三重県,鈴鹿・布引山地,
713,御在所山,ございしょやま,,,鈴鹿,1212,35.02055556,136.4177778,滋賀県 三重県,鈴鹿・布引山地,日本二百名山
714,雨乞岳,あまごいだけ,,,鈴鹿,1238,35.02111111,136.3841667,滋賀県,鈴鹿・布引山地,☓
715,高畑山,たかはたやま,,,,773,34.88972222,136.3208333,三重県 滋賀県,鈴鹿・布引山地,
716,霊山,れいさん,,,,766,34.81722222,136.2605556,三重県,鈴鹿・布引山地,
717,経が峰,きょうがみね,,,,819,34.76638889,136.3744444,三重県,鈴鹿・布引山地,
718,笠取山,かさとりやま,,,,842,34.73416667,136.2966667,三重県,鈴鹿・布引山地,
719,武奈ヶ岳,ぶながだけ,,,,1214,35.26472222,135.8969444,滋賀県,琵琶湖周辺,日本二百名山
720,皆子山,みなこやま,,,,971,35.20222222,135.8352778,京都府 滋賀県,琵琶湖周辺,
721,蓬莱山,ほうらいさん,,,,1174,35.20944444,135.8858333,滋賀県,琵琶湖周辺,
722,比叡山,ひえいざん,,,,848,35.06583333,135.8344444,滋賀県 京都府,琵琶湖周辺,
723,音羽山,おとわやま,,,,593,34.97694444,135.8530556,京都府,琵琶湖周辺,
724,三上山,みかみやま,,,,432,35.05055556,136.0377778,滋賀県,琵琶湖周辺,
725,鷲峰山,じゅうぶざん,,,,682,34.83055556,135.9083333,京都府,笠置山地,
726,笠置山,かさぎやま,,,,324,34.75194444,135.9505556,京都府,笠置山地,
727,若草山,わかくさやま,三笠山,みかさやま,,342,34.69111111,135.8544444,奈良県,笠置山地,
728,三輪山,みわやま,,,,467,34.535,135.8669444,奈良県,笠置山地,
729,耳成山,みみなしやま,,,,139,34.51472222,135.8052778,奈良県,奈良盆地,
730,天香久山,あまのかぐやま,,,,152,34.49583333,135.8183333,奈良県,奈良盆地,
731,畝傍山,うねびやま,,,,199,34.4925,135.7847222,奈良県,奈良盆地,
732,生駒山,いこまやま,,,,642,34.67833333,135.6788889,大阪府 奈良県,生駒・金剛・和泉山地,
733,信貴山,しぎさん,,,,437,34.61277778,135.6683333,奈良県,生駒・金剛・和泉山地,
734,二上山,にじょうさん,雄岳,おだけ,,517,34.52583333,135.6775,奈良県,生駒・金剛・和泉山地,
735,葛城山,かつらぎさん,,,,959,34.45611111,135.6822222,奈良県 大阪府,生駒・金剛・和泉山地,
736,金剛山,こんごうざん,,,,1125,34.41944444,135.6730556,奈良県,生駒・金剛・和泉山地,日本二百名山
737,岩湧山,いわわきさん,,,,897,34.37416667,135.5511111,大阪府,生駒・金剛・和泉山地,
738,葛城山,かつらぎさん,,,,858,34.34805556,135.4344444,大阪府 和歌山県,生駒・金剛・和泉山地,
739,俎石山,そせきざん,,,,420,34.30833333,135.2077778,和歌山県 大阪府,生駒・金剛・和泉山地,
740,堀坂山,ほっさかさん,,,,757,34.54666667,136.4327778,三重県,高見山地,
741,尼ケ岳,あまがだけ,,,,957,34.5575,136.2197222,三重県,高見山地,
742,倶留尊山,くろそやま,,,,1037,34.53083333,136.1702778,三重県 奈良県,高見山地,
743,局ヶ岳,つぼねがだけ,,,,1029,34.46055556,136.3269444,三重県,高見山地,
744,三峰山,みうねやま,,,,1235,34.44861111,136.2063889,三重県 奈良県,高見山地,
745,高見山,たかみやま,,,,1248,34.42861111,136.0883333,三重県 奈良県,高見山地,
746,竜門岳,りゅうもんがだけ,,,,904,34.44055556,135.8977778,奈良県,高見山地,
747,朝熊ヶ岳,あさまがたけ,,,,555,34.46111111,136.7813889,三重県,紀伊山地東部,
748,七洞岳,ななほらがたけ,,,,778,34.37305556,136.5158333,三重県,紀伊山地東部,
749,迷岳,まよいだけ,,,,1309,34.35,136.2075,三重県,大台原山とその周辺,
750,国見山,くにみやま,,,,1419,34.37583333,136.0866667,三重県 奈良県,大台原山とその周辺,
751,池木屋山,いけごややま,,,,1396,34.31611111,136.1294444,三重県 奈良県,大台原山とその周辺,
752,白鬚岳,しらひげだけ,,,,1378,34.29305556,136.0469444,奈良県,大台原山とその周辺,
753,大台ヶ原山,おおだいがはらざん,日出ヶ岳,ひのでがたけ,,1695,34.18527778,136.1091667,奈良県 三重県,大台原山とその周辺,日本百名山
754,山上ヶ岳,さんじょうがたけ,,,大峰,1719,34.2525,135.9411111,奈良県,大峰山脈,
755,大普賢岳,だいふげんだけ,,,大峰,1780,34.22777778,135.9627778,奈良県,大峰山脈,☓
756,弥山,みせん,,,大峰,1895,34.18,135.9094444,奈良県,大峰山脈,☓
757,八経ヶ岳,はっきょうがだけ,,,大峰,1915,34.17361111,135.9075,奈良県,大峰山脈,日本百名山
758,仏生嶽,ぶっしょうがだけ,,,大峰,1805,34.13444444,135.9130556,奈良県,大峰山脈,☓
759,釈迦ヶ岳,しゃかがだけ,,,大峰,1800,34.11444444,135.9030556,奈良県,大峰山脈,日本二百名山
760,涅槃岳,ねはんだけ,,,大峰,1376,34.05833333,135.8969444,奈良県,大峰山脈,
761,笠捨山,かさすてやま,,,大峰,1353,33.98277778,135.8983333,奈良県,大峰山脈,
762,玉置山,たまきやま,,,大峰,1077,33.92666667,135.8316667,奈良県,大峰山脈,☓
763,高峰山,たかみねさん,,,,1045,34.03194444,136.1472222,三重県,紀伊山地東部,
764,子ノ泊山,ねのとまりやま,,,,907,33.79444444,135.9305556,三重県,紀伊山地東部,
765,龍門山,りゅうもんざん,,,,756,34.23805556,135.4113889,和歌山県,紀伊山地西部,
766,生石ヶ峰,おいしがみね,,,,870,34.105,135.3341667,和歌山県,紀伊山地西部,
767,白馬山,しらまやま,,,,957,34.01583333,135.3722222,和歌山県,紀伊山地西部,
768,伯母子岳,おばこだけ,,,,1344,34.0775,135.6508333,奈良県,紀伊山地西部,日本二百名山
769,護摩壇山,ごまだんざん,,,,1372,34.0575,135.5669444,奈良県 和歌山県,紀伊山地西部,
770,牛廻山,うしまわしやま,,,,1207,33.94888889,135.6313889,奈良県 和歌山県,紀伊山地西部,
771,冷水山,ひやみずやま,,,,1262,33.89916667,135.6527778,奈良県,紀伊山地西部,
772,大塔山,おおとうざん,,,,1122,33.72694444,135.7138889,和歌山県,紀伊山地西部,
773,法師山,ほうしやま,,,,1121,33.72583333,135.6652778,和歌山県,紀伊山地西部,
774,那智山,なちさん,,,,910,33.69611111,135.9008333,和歌山県,紀伊山地西部,
775,善司ノ森山,ぜんじのもりやま,,,,591,33.59361111,135.5469444,和歌山県,紀伊山地西部,
776,野坂岳,のさかだけ,,,,913,35.58972222,136.0247222,福井県,丹波高地,
777,雲谷山,くもだにやま,,,,786,35.55777778,135.945,福井県,丹波高地,
778,久須夜ヶ岳,くすやがだけ,,,,619,35.5575,135.7336111,福井県,丹波高地,
779,百里ヶ岳,ひゃくりがだけ,,,,931,35.39166667,135.81,福井県 滋賀県,丹波高地,
780,飯盛山,はんせいざん,,,,584,35.45194444,135.66,福井県,丹波高地,
781,青葉山,あおばやま,,,,693,35.505,135.4838889,福井県,丹波高地,
782,頭巾山,とうきんざん,,,,871,35.3775,135.5344444,福井県 京都府,丹波高地,
783,長老ヶ岳,ちょうろうがだけ,,,,917,35.30333333,135.4738889,京都府,丹波高地,
784,桟敷ヶ岳,さじきがだけ,,,,896,35.15916667,135.7172222,京都府,丹波高地,
785,愛宕山,あたごやま,,,,924,35.06027778,135.6341667,京都府,丹波高地,
786,ポンポン山,ぽんぽんやま,,,,679,34.93527778,135.6238889,京都府 大阪府,丹波高地,
787,妙見山,みょうけんさん,,,,660,34.92888889,135.4672222,大阪府 兵庫県,丹波高地,
788,歌垣山,うたがきやま,,,,553,34.97416667,135.4766667,大阪府,丹波高地,
789,剣尾山,けんびさん,,,,784,35.00361111,135.4038889,大阪府,丹波高地,
790,三嶽,みたけ,,,,793,35.12722222,135.245,兵庫県,丹波高地,
791,白髪岳,しらがだけ,,,,722,35.04611111,135.1347222,兵庫県,丹波高地,
792,太鼓山,たいこやま,,,,683,35.69527778,135.2041667,京都府,丹波高地,
793,磯砂山,いさなごさん,,,,661,35.54861111,135.0380556,京都府,丹波高地,
794,大江山,おおえやま,,,,832,35.45333333,135.1066667,京都府,丹波高地,
795,東床尾山,ひがしとこのおさん,,,,839,35.42194444,134.9158333,兵庫県,丹波高地,
796,来日岳,くるひだけ,,,,567,35.61194444,134.7855556,兵庫県,丹波高地,
797,六甲山,ろっこうさん,,,,931,34.77805556,135.2636111,兵庫県,六甲山地,
798,摩耶山,まやさん,,,,702,34.73305556,135.2041667,兵庫県,六甲山地,
799,妙見山,みょうけんやま,,,,522,34.49722222,134.9433333,兵庫県,淡路島,
800,諭鶴羽山,ゆづるはさん,,,,608,34.235,134.8141667,兵庫県,淡路島,
801,粟鹿山,あわがやま,,,,962,35.27277778,134.9155556,兵庫県,中国山地東部,
802,千ヶ峰,せんがみね,,,,1005,35.14472222,134.8838889,兵庫県,中国山地東部,
803,笠形山,かさがたやま,,,,939,35.06416667,134.8347222,兵庫県,中国山地東部,
804,久斗山,くとやま,,,,650,35.62111111,134.5627778,兵庫県,中国山地東部,
805,蘇武岳,そぶがたけ,,,,1074,35.47083333,134.6380556,兵庫県,中国山地東部,
806,妙見山,みょうけんやま,,,,1139,35.41055556,134.6438889,兵庫県,中国山地東部,
807,藤無山,ふじなしやま,,,,1139,35.26666667,134.6005556,兵庫県,中国山地東部,
808,段ヶ峰,だんがみね,,,,1103,35.19166667,134.7275,兵庫県,中国山地東部,
809,雪彦山,せっぴこさん,,,,915,35.07277778,134.6511111,兵庫県,中国山地東部,
810,扇ノ山,おうぎのせん,,,,1310,35.43972222,134.4408333,鳥取県,中国山地東部,
811,鉢伏山,はちぶせやま,,,,1222,35.39527778,134.5363889,兵庫県,中国山地東部,
812,氷ノ山,ひょうのせん,須賀ノ山,すがのせん,,1510,35.35388889,134.5138889,兵庫県 鳥取県,中国山地東部,日本二百名山
813,三室山,みむろやま,,,,1358,35.23666667,134.4627778,兵庫県 鳥取県,中国山地東部,
814,東山,とうせん,,,,1388,35.29222222,134.3830556,鳥取県,中国山地東部,
815,沖ノ山,おきのやま,,,,1318,35.24805556,134.3566667,鳥取県,中国山地東部,
816,後山,うしろやま,,,,1344,35.18694444,134.4111111,岡山県 兵庫県,中国山地東部,
817,那岐山,なぎさん,,,,1255,35.17166667,134.1802778,鳥取県 岡山県,中国山地東部,
818,書写山,しょしゃざん,,,,371,34.89277778,134.6563889,兵庫県,吉備高原東部,
819,白旗山,しらはたやま,,,,440,34.90833333,134.3808333,兵庫県,吉備高原東部,
820,八塔寺山,はっとうじさん,,,,538,34.92305556,134.2522222,岡山県,吉備高原東部,
821,金山,かなやま,,,,499,34.74472222,133.9408333,岡山県,吉備高原東部,
822,大平山,おおひらやま,,,,698,34.89888889,133.7069444,岡山県,吉備高原東部,
823,大満寺山,だいまんじさん,,,,608,36.25666667,133.3305556,島根県,隠岐,
824,焼火山,たくひやま,,,,452,36.07472222,133.0319444,島根県,隠岐,
825,朝日山,あさひやま,,,,344,35.50777778,132.9763889,島根県,島根半島,
826,鼻高山,はなたかせん,,,,536,35.4125,132.7527778,島根県,島根半島,
827,高鉢山,たかはちやま,,,,1203,35.36027778,134.0511111,鳥取県,中国山地中部,
828,花知ヶ仙,はなちがせん,,,,1247,35.25944444,133.975,岡山県,中国山地中部,
829,津黒山,つぐろせん,,,,1118,35.25194444,133.815,岡山県,中国山地中部,
830,蒜山,ひるぜん,,,,1202,35.325,133.6633333,鳥取県 岡山県,中国山地中部,日本二百名山
831,矢筈ヶ山,やはずがせん,,,,1358,35.38666667,133.5808333,鳥取県,中国山地中部,
832,大山,だいせん,,,,1729,35.37111111,133.5461111,鳥取県,中国山地中部,日本百名山
833,烏ヶ山,からすがせん,,,,1448,35.35583333,133.5702778,鳥取県,中国山地中部,
834,毛無山,けなしがせん,,,,1219,35.23555556,133.5147222,鳥取県 岡山県,中国山地中部,
835,宝仏山,ほうぶつざん,,,,1005,35.22972222,133.4702778,鳥取県,中国山地中部,
836,星山,ほしやま,,,,1030,35.14194444,133.6772222,岡山県,中国山地中部,
837,花見山,はなみやま,,,,1188,35.1525,133.4011111,鳥取県 岡山県,中国山地中部,
838,大倉山,おおくらやま,,,,1112,35.13361111,133.3552778,鳥取県,中国山地中部,
839,船通山,せんつうざん,,,,1142,35.15583333,133.1786111,島根県 鳥取県,中国山地中部,
840,道後山,どうごやま,,,,1271,35.06944444,133.2327778,広島県 鳥取県,中国山地中部,
841,比婆山,ひばやま,立烏帽子山,たてえぼしやま,,1299,35.05166667,133.0655556,広島県,中国山地中部,
842,烏帽子山,えぼしやま,,,,1225,35.07,133.0522222,広島県 島根県,中国山地中部,☓
843,猿政山,さるまさやま,,,,1268,35.08138889,132.9677778,島根県 広島県,中国山地中部,
844,大万木山,おおよろぎやま,,,,1218,35.0875,132.8544444,島根県 広島県,中国山地中部,
845,琴引山,ことびきさん,弥山,みせん,,1013,35.04805556,132.7825,島根県,中国山地中部,
846,三瓶山,さんべさん,,,,1126,35.14055556,132.6216667,島根県,中国山地中部,日本二百名山
847,大江高山,おおえたかやま,,,,808,35.06388889,132.4286111,島根県,中国山地中部,
848,星居山,ほしのこやま,,,,834,34.74805556,133.2216667,広島県,吉備高原西部,
849,岳山,だけやま,,,,741,34.64888889,133.1566667,広島県,吉備高原西部,
850,龍王山,りゅうおうさん,,,,665,34.45583333,133.0833333,広島県,吉備高原西部,
851,鷹ノ巣山,たかのすざん,,,,922,34.56611111,132.7461111,広島県,吉備高原西部,
852,白木山,しらきやま,,,,889,34.52138889,132.5755556,広島県,吉備高原西部,
853,呉娑々宇山,ごさそうざん,,,,682,34.42277778,132.5477778,広島県,吉備高原西部,
854,野呂山,のろさん,膳棚山,ぜんだなやま,,839,34.26222222,132.6661111,広島県,吉備高原西部,
855,冠山,かんざん,,,,863,34.9175,132.5019444,島根県,中国山地西部,
856,阿佐山,あさやま,,,,1218,34.78583333,132.3813889,島根県 広島県,中国山地西部,
857,天狗石山,てんぐいしやま,,,,1192,34.79222222,132.3427778,島根県 広島県,中国山地西部,
858,雲月山,うんげつやま,,,,911,34.80222222,132.2388889,島根県 広島県,中国山地西部,
859,大佐山,おおさやま,,,,1069,34.74777778,132.2013889,島根県 広島県,中国山地西部,
860,臥龍山,がりゅうざん,,,,1223,34.69,132.1966667,広島県,中国山地西部,
861,深入山,しんにゅうざん,,,,1153,34.65,132.2066667,広島県,中国山地西部,
862,恐羅漢山,おそらかんざん,,,,1346,34.59555556,132.1297222,島根県 広島県,中国山地西部,
863,十方山,じっぽうざん,,,,1328,34.56527778,132.1422222,広島県,中国山地西部,
864,大峯山,おおみねやま,,,,1050,34.41583333,132.2169444,広島県,中国山地西部,
865,冠山,かんむりやま,,,,1339,34.46861111,132.0761111,広島県,中国山地西部,
866,寂地山,じゃくちさん,,,,1337,34.46722222,132.0544444,山口県 島根県,中国山地西部,
867,安蔵寺山,あぞうじやま,,,,1263,34.47722222,131.9672222,島根県,中国山地西部,
868,小五郎山,こごろうさん,,,,1162,34.41694444,132.0086111,山口県,中国山地西部,
869,羅漢山,らかんざん,,,,1109,34.35555556,132.0672222,山口県,中国山地西部,
870,鈴ノ大谷山,すずのおおたにやま,,,,1036,34.37666667,131.8391667,島根県,中国山地西部,
871,平家ヶ岳,へいけがだけ,,,,1066,34.31833333,131.8997222,島根県 山口県,中国山地西部,
872,馬糞ヶ岳,ばふんがだけ,,,,985,34.25055556,131.8963889,山口県,中国山地西部,
873,莇ヶ岳,あざみがだけ,,,,1004,34.3325,131.7777778,山口県,中国山地西部,
874,青野山,あおのやま,,,,907,34.46222222,131.7980556,島根県,中国山地西部,
875,十種ヶ峰,とくさがみね,,,,989,34.43833333,131.6952778,山口県 島根県,中国山地西部,
876,高山,こうやま,,,,533,34.65222222,131.6133333,山口県,中国山地西部,
877,西鳳翩山,にしほうべんざん,,,,742,34.21083333,131.4094444,山口県,中国山地西部,
878,大平山,おおひらやま,,,,631,34.07333333,131.6302778,山口県,中国山地西部,
879,桂木山,かつらぎさん,,,,702,34.30527778,131.3027778,山口県,中国山地西部,
880,花尾山,はなおやま,,,,669,34.28388889,131.2211111,山口県,中国山地西部,
881,天井ヶ岳,てんじょうがだけ,,,,691,34.31111111,131.0427778,山口県,中国山地西部,
882,狗留孫山,くるそんざん,御岳,おだけ,,616,34.21472222,130.9763889,山口県,中国山地西部,
883,竜王山,りゅうおうざん,,,,614,34.06833333,130.9358333,山口県,中国山地西部,
884,嶮岨山,けんそざん,星ヶ城山,ほしがじょうやま,,816,34.51527778,134.3175,香川県,瀬戸内海（小豆島）,
885,熊ヶ峰,くまがみね,,,,438,34.43333333,133.3683333,広島県,福山南部,
886,鷲ヶ頭山,わしがとうざん,,,,436,34.23916667,133.0213889,愛媛県,瀬戸内海（大三島）,
887,弥山,みせん,,,,535,34.27944444,132.3194444,広島県,瀬戸内海（厳島）,
888,皇座山,おおざさん,,,,526,33.85305556,132.1422222,山口県,柳井市南方,
889,五剣山,ごけんざん,八栗山,やくりやま,,375,34.36111111,134.1413889,香川県,讃岐山地とその周辺,
890,大平山,おおひらやま,,,,479,34.32972222,133.9525,香川県,讃岐山地とその周辺,
891,飯野山,いいのやま,,,,422,34.27444444,133.8458333,香川県,讃岐山地とその周辺,
892,象頭山,ぞうずさん,大麻山,おおさやま,,616,34.19666667,133.7886111,香川県,讃岐山地とその周辺,
893,矢筈山,やはずやま,,,,789,34.19416667,134.1966667,香川県,讃岐山地とその周辺,
894,大滝山,おおたきやま,,,,946,34.12333333,134.1269444,香川県 徳島県,讃岐山地とその周辺,
895,竜王山,りゅうおうざん,,,,1060,34.11555556,134.0483333,徳島県 香川県,讃岐山地とその周辺,
896,大川山,だいせんざん,,,,1043,34.11527778,133.9397222,徳島県 香川県,讃岐山地とその周辺,
897,雲辺寺山,うんぺんじさん,,,,927,34.03527778,133.7230556,香川県 徳島県,讃岐山地とその周辺,
898,東三方ヶ森,ひがしさんぽうがもり,,,,1233,33.90277778,132.9597222,愛媛県,高縄山地,
899,高縄山,たかなわさん,,,,986,33.94583333,132.85,愛媛県,高縄山地,
900,眉山,びざん,,,,290,34.06111111,134.5163889,徳島県,四国山地東部,
901,中津峰山,なかつみねやま,,,,773,33.9625,134.5094444,徳島県,四国山地東部,
902,太竜寺山,たいりゅうじやま,,,,618,33.87416667,134.5197222,徳島県,四国山地東部,
903,高越山,こうつざん,,,,1133,34.01722222,134.1958333,徳島県,剣山地,
904,雲早山,くもそうやま,,,,1496,33.90583333,134.2947222,徳島県,剣山地,
905,八面山,やつらやま,,,,1312,33.92333333,134.0997222,徳島県,剣山地,
906,剣山,つるぎさん,,,,1955,33.85361111,134.0941667,徳島県,剣山地,日本百名山
907,丸笹山,まるざさやま,,,,1712,33.87416667,134.09,徳島県,剣山地,☓
908,塔丸,とうのまる,,,,1713,33.86694444,134.0391667,徳島県,剣山地,
909,矢筈山,やはずさん,,,,1849,33.925,133.975,徳島県,剣山地,
910,中津山,なかつざん,,,,1447,33.92472222,133.8441667,徳島県,剣山地,
911,国見山,くにみざん,,,,1409,33.9075,133.7847222,徳島県,剣山地,
912,天狗塚,てんぐづか,,,,1812,33.82694444,133.9433333,徳島県,剣山地,
913,三嶺,みうね,,,,1894,33.83944444,133.9877778,徳島県 高知県,剣山地,日本二百名山
914,白髪山,しらがやま,,,,1770,33.81,133.9930556,高知県,剣山地,
915,石立山,いしたてざん,,,,1708,33.78472222,134.055,徳島県 高知県,剣山地,
916,梶ヶ森,かじがもり,,,,1400,33.75916667,133.7513889,高知県,四国山地東部,
917,甚吉森,じんきちもり,,,,1423,33.69472222,134.11,徳島県 高知県,四国山地東部,
918,天狗森,てんぐもり,,,,1296,33.61888889,134.0677778,高知県,四国山地東部,
919,鐘ヶ龍森,かねがりゅうもり,,,,1126,33.54694444,134.0819444,高知県,四国山地東部,
920,工石山,くいしやま,,,,1516,33.85555556,133.58,高知県,四国山地西部,
921,白髪山,しらがやま,,,,1469,33.81611111,133.5908333,高知県,四国山地西部,
922,稲叢山,いなむらやま,,,,1506,33.74694444,133.3591667,高知県,四国山地西部,
923,工石山,くいしやま,,,,1177,33.66972222,133.5061111,高知県,四国山地西部,
924,赤星山,あかぼしやま,,,,1453,33.91944444,133.4580556,愛媛県,石鎚山地,
925,東赤石山,ひがしあかいしやま,,,,1706,33.875,133.375,愛媛県,石鎚山地,日本二百名山
926,笹ヶ峰,ささがみね,,,,1860,33.82805556,133.2747222,愛媛県 高知県,石鎚山地,日本二百名山
927,伊予富士,いよふじ,,,,1756,33.78805556,133.2480556,愛媛県 高知県,石鎚山地,
928,瓶ヶ森,かめがもり,,,,1897,33.79472222,133.1933333,愛媛県,石鎚山地,
929,石鎚山,いしづちさん,天狗岳,てんぐだけ,,1982,33.76777778,133.115,愛媛県,石鎚山地,日本百名山
930,二ノ森,にのもり,,,,1930,33.75861111,133.0938889,愛媛県,石鎚山地,
931,筒上山,つつじょうざん,,,,1860,33.73194444,133.1611111,愛媛県 高知県,石鎚山地,
932,石墨山,いしずみさん,,,,1456,33.73388889,132.9847222,愛媛県,四国山地西部,
933,障子山,しょうじやま,,,,885,33.70527778,132.7652778,愛媛県,四国山地西部,
934,壺神山,つぼがみやま,,,,971,33.60555556,132.5547222,愛媛県,四国山地西部,
935,出石山,いずしやま,,,,812,33.535,132.4652778,愛媛県,四国山地西部,
936,神南山,かんなんざん,,,,710,33.5175,132.6327778,愛媛県,四国山地西部,
937,御在所山,ございしょざん,,,,915,33.34388889,132.7558333,愛媛県,四国山地西部,
938,笠取山,かさとりやま,,,,1562,33.55555556,132.9225,愛媛県,四国山地西部,
939,明神山,みょうじんさん,中津山,なかつさん,,1541,33.57555556,133.0466667,愛媛県 高知県,四国山地西部,
940,不入山,いらずやま,,,,1336,33.44083333,133.0630556,高知県,四国山地西部,
941,蟠蛇森,ばんだがもり,,,,770,33.44111111,133.2594444,高知県,四国山地西部,
942,鈴ヶ森,すずがもり,,,,1054,33.35638889,133.0511111,高知県,四国山地西部,
943,五在所ノ峯,ございしょのみね,,,,658,33.17722222,133.1508333,高知県,四国山地西部,
944,堂が森,どうがもり,,,,857,33.16,132.8766667,高知県,四国山地西部,
945,高月山,たかつきやま,,,,1229,33.20861111,132.6347222,愛媛県,四国山地西部,
946,三本杭,さんぼんぐい,,,,1226,33.18833333,132.6352778,愛媛県,四国山地西部,
947,篠山,ささやま,,,,1065,33.05583333,132.6591667,愛媛県 高知県,四国山地西部,
948,今ノ山,いまのやま,,,,868,32.8575,132.8502778,高知県,四国山地西部,
949,足立山,あだちやま,霧ヶ岳,きりがたけ,,598,33.85944444,130.9172222,福岡県,筑紫山地,
950,貫山,ぬきさん,,,,712,33.78055556,130.9094444,福岡県,筑紫山地,
951,福智山,ふくちやま,,,,901,33.74222222,130.8038889,福岡県,筑紫山地,
952,犬ヶ岳,いぬがたけ,,,,1131,33.51222222,131.0016667,大分県 福岡県,筑紫山地,
953,英彦山,ひこさん,,,,1199,33.47611111,130.9261111,福岡県 大分県,筑紫山地,日本二百名山
954,馬見山,うまみやま,,,,978,33.48638889,130.7677778,福岡県,筑紫山地,
955,犬鳴山,いぬなきやま,熊ヶ城,くまがしろ,,584,33.68722222,130.5491667,福岡県,筑紫山地,
956,三郡山,さんぐんざん,,,,936,33.55555556,130.5838889,福岡県,筑紫山地,
957,基山,きざん,,,,404,33.44277778,130.5102778,佐賀県,筑紫山地,
958,脊振山,せふりさん,,,,1055,33.43638889,130.3686111,福岡県 佐賀県,筑紫山地,
959,浮嶽,うきだけ,,,,805,33.47,130.0991667,福岡県 佐賀県,筑紫山地,
960,天山,てんざん,,,,1046,33.33888889,130.1427778,佐賀県,筑紫山地,
961,両子山,ふたごさん,,,,720,33.58305556,131.6016667,大分県,国東半島,
962,鹿嵐山,かならせやま,,,,758,33.43472222,131.2527778,大分県,阿蘇・くじゅうとその周辺,
963,鶴見岳,つるみだけ,,,,1375,33.28666667,131.4297222,大分県,阿蘇・くじゅうとその周辺,
964,由布岳,ゆふだけ,,,,1583,33.28222222,131.3902778,大分県,阿蘇・くじゅうとその周辺,日本二百名山
965,万年山,はねやま,,,,1140,33.23138889,131.1305556,大分県,阿蘇・くじゅうとその周辺,
966,涌蓋山,わいたざん,,,,1500,33.14,131.1644444,大分県,阿蘇・くじゅうとその周辺,
967,中岳,なかだけ,,,九重,1791,33.08583333,131.2488889,大分県,阿蘇・くじゅうとその周辺,日本百名山
968,黒岳,くろだけ,,,九重,1587,33.10555556,131.2927778,大分県,阿蘇・くじゅうとその周辺,
969,大船山,たいせんざん,,,九重,1786,33.095,131.2805556,大分県,阿蘇・くじゅうとその周辺,
970,三俣山,みまたやま,,,九重,1744,33.10388889,131.2463889,大分県,阿蘇・くじゅうとその周辺,
971,星生山,ほっしょうざん,,,九重,1762,33.09083333,131.2325,大分県,阿蘇・くじゅうとその周辺,☓
972,久住山,くじゅうさん,,,九重,1787,33.08222222,131.2408333,大分県,阿蘇・くじゅうとその周辺,☓
973,高岳,たかだけ,,,阿蘇山,1592,32.88444444,131.1038889,熊本県,阿蘇・くじゅうとその周辺,日本百名山
974,根子岳,ねこだけ,,,阿蘇山,1433,32.88361111,131.1444444,熊本県,阿蘇・くじゅうとその周辺,
975,中岳,なかだけ,,,阿蘇山,1506,32.88361111,131.0969444,熊本県,阿蘇・くじゅうとその周辺,☓
976,杵島岳,きしまだけ,,,阿蘇山,1326,32.8925,131.0580556,熊本県,阿蘇・くじゅうとその周辺,
977,烏帽子岳,えぼしだけ,,,阿蘇山,1337,32.87361111,131.0580556,熊本県,阿蘇・くじゅうとその周辺,
978,鷹取山,たかとりやま,,,,802,33.30305556,130.7227778,福岡県,阿蘇・くじゅうとその周辺,
979,釈迦岳,しゃかだけ,,,,1231,33.1875,130.8891667,大分県,阿蘇・くじゅうとその周辺,
980,酒呑童子山,しゅてんどうじやま,,,,1181,33.09694444,130.9083333,大分県,阿蘇・くじゅうとその周辺,
981,国見山,くにみやま,,,,1018,33.10555556,130.8175,熊本県,阿蘇・くじゅうとその周辺,
982,筒ヶ岳,つつがたけ,,,,501,32.98472222,130.5275,熊本県,阿蘇・くじゅうとその周辺,
983,金峰山,きんぼうざん,,,,665,32.81416667,130.6388889,熊本県,阿蘇・くじゅうとその周辺,
984,黒髪山,くろかみざん,,,,516,33.21388889,129.9022222,佐賀県,佐賀西部・長崎・島原,
985,国見山,くにみやま,,,,776,33.23694444,129.8127778,長崎県,佐賀西部・長崎・島原,
986,虚空蔵山,こくぞうざん,,,,609,33.09055556,129.9213889,長崎県,佐賀西部・長崎・島原,
987,経ヶ岳,きょうがだけ,,,,1076,32.9875,130.0763889,佐賀県 長崎県,佐賀西部・長崎・島原,☓
988,多良岳,たらだけ,,,,996,32.97555556,130.0927778,佐賀県,佐賀西部・長崎・島原,
989,五家原岳,ごかはらだけ,,,,1057,32.95805556,130.0766667,長崎県,佐賀西部・長崎・島原,☓
990,普賢岳,ふげんだけ,,,,1359,32.76,130.2922222,長崎県,佐賀西部・長崎・島原,☓
991,雲仙岳,うんぜんだけ,平成新山,へいせいしんざん,,1483,32.76138889,130.2988889,長崎県,佐賀西部・長崎・島原,日本二百名山
992,長浦岳,ながうらだけ,,,,561,32.91361111,129.7447222,長崎県,佐賀西部・長崎・島原,
993,八郎岳,はちろうだけ,,,,590,32.67027778,129.8563889,長崎県,佐賀西部・長崎・島原,
994,御岳,みたけ,,,,479,34.57194444,129.3816667,長崎県,対馬,
995,白嶽,しらたけ,,,,518,34.26416667,129.2497222,長崎県,対馬,
996,有明山,ありあけやま,,,,558,34.20444444,129.265,長崎県,対馬,
997,矢立山,やたてやま,,,,648,34.1775,129.2261111,長崎県,対馬,
998,三王山,さんのうざん,雄嶽,おだけ,,439,32.93333333,129.0530556,長崎県,五島列島,
999,父ヶ岳,ててがたけ,,,,460,32.69833333,128.6811111,長崎県,五島列島,
1000,佩楯山,はいだてさん,,,,754,32.95305556,131.6458333,大分県,九州山地,
1001,傾山,かたむきやま,,,,1605,32.83888889,131.4758333,大分県,九州山地,
1002,大崩山,おおくえやま,,,,1644,32.73777778,131.5130556,宮崎県,九州山地,日本二百名山
1003,行縢山,むかばきやま,,,,830,32.62583333,131.5722222,宮崎県,九州山地,
1004,祖母山,そぼさん,,,,1756,32.82805556,131.3469444,大分県 宮崎県,九州山地,日本百名山
1005,古祖母山,ふるそぼさん,,,,1633,32.80277778,131.3644444,大分県 宮崎県,九州山地,☓
1006,諸塚山,もろつかやま,,,,1342,32.63472222,131.2875,宮崎県,九州山地,
1007,向坂山,むこうざかやま,,,,1685,32.57972222,131.105,熊本県 宮崎県,九州山地,
1008,国見岳,くにみだけ,,,,1739,32.54722222,131.0183333,熊本県 宮崎県,九州山地,
1009,上福根山,かみふくねやま,,,,1646,32.47333333,130.9469444,熊本県,九州山地,
1010,江代山,えしろやま,津野岳,つのだけ,,1607,32.37055556,131.0761111,熊本県 宮崎県,九州山地,
1011,市房山,いちふさやま,,,,1721,32.31166667,131.1011111,熊本県 宮崎県,九州山地,日本二百名山
1012,石堂山,いしどうやま,,,,1547,32.30027778,131.1677778,宮崎県,九州山地,
1013,尾鈴山,おすずやま,,,,1405,32.29916667,131.4266667,宮崎県,九州山地,日本二百名山
1014,仰烏帽子山,のけえぼしやま,,,,1302,32.37138889,130.7777778,熊本県,九州山地,
1015,白髪岳,しらがだけ,,,,1417,32.15027778,130.9433333,熊本県,九州山地,
1016,国見山,くにみやま,,,,969,32.18777778,130.6141667,熊本県,九州山地,
1017,矢筈岳,やはずだけ,,,,687,32.12277778,130.4005556,熊本県 鹿児島県,九州山地,
1018,紫尾山,しびさん,上宮山,じょうぐさん,,1067,31.98083333,130.3675,鹿児島県,九州山地,
1019,鰐塚山,わにつかやま,,,,1118,31.76888889,131.2694444,宮崎県,九州南部,
1020,韓国岳,からくにだけ,,,霧島,1700,31.93416667,130.8616667,宮崎県 鹿児島県,九州南部,日本百名山
1021,新燃岳,しんもえだけ,,,霧島,1421,31.90944444,130.8863889,宮崎県 鹿児島県,九州南部,
1022,高千穂峰,たかちほのみね,,,霧島,1574,31.88638889,130.9188889,宮崎県,九州南部,日本二百名山
1023,高隈山,たかくまやま,,,,1236,31.48611111,130.8186111,鹿児島県,九州南部,
1024,御岳,おんたけ,,,,1182,31.46027778,130.8205556,鹿児島県,九州南部,☓
1025,甫与志岳,ほよしだけ,,,,967,31.26416667,130.99,鹿児島県,九州南部,
1026,稲尾岳,いなおだけ,,,,930,31.12333333,130.8847222,鹿児島県,九州南部,
1027,桜島,さくらじま,御岳,おんたけ,,1117,31.5925,130.6566667,鹿児島県,九州南部,日本二百名山
1028,八重山,やえやま,,,,677,31.73444444,130.4483333,鹿児島県,九州南部,
1029,冠岳,かんむりだけ,西岳,にしだけ,,516,31.74861111,130.3311111,鹿児島県,九州南部,
1030,熊ヶ岳,くまがたけ,,,,590,31.45527778,130.4638889,鹿児島県,九州南部,
1031,金峯山,きんぽうざん,,,,636,31.46777778,130.3830556,鹿児島県,九州南部,
1032,野間岳,のまだけ,,,,591,31.40444444,130.1583333,鹿児島県,九州南部,
1033,開聞岳,かいもんだけ,,,,924,31.18,130.5283333,鹿児島県,九州南部,日本百名山
1034,倉岳,くらだけ,,,,682,32.42777778,130.3269444,熊本県,天草諸島,
1035,角山,かどやま,,,,526,32.39944444,130.0938889,熊本県,天草諸島,
1036,尾岳,おたけ,,,,604,31.72305556,129.7394444,鹿児島県,甑島列島,
1037,天女ヶ倉,あまめがくら,,,,238,30.74361111,131.0533333,鹿児島県,種子島,
1038,硫黄岳,いおうだけ,,,,704,30.79305556,130.3052778,鹿児島県,大隅諸島（薩摩硫黄島）,
1039,櫓岳,やぐらだけ,,,,622,30.82833333,129.9375,鹿児島県,大隅諸島（黒島）,
1040,古岳,ふるだけ,,,,657,30.44333333,130.2172222,鹿児島県,大隅諸島（口永良部島）,
1041,宮之浦岳,みやのうらだけ,,,,1936,30.33611111,130.5041667,鹿児島県,屋久島,日本百名山
1042,永田岳,ながただけ,,,,1886,30.34277778,130.4925,鹿児島県,屋久島,
1043,モッチョム岳,もっちょむだけ,,,,940,30.25666667,130.5641667,鹿児島県,屋久島,
1044,前岳,まえだけ,,,,628,29.96805556,129.9255556,鹿児島県,吐☓喇列島（口之島）,
1045,御岳,おんたけ,,,,979,29.85916667,129.8569444,鹿児島県,吐☓喇列島（中之島）,
1046,御岳,おたけ,,,,497,29.90305556,129.5416667,鹿児島県,吐☓喇列島（臥蛇島）,
1047,御岳,おたけ,,,,796,29.63833333,129.7138889,鹿児島県,吐☓喇列島（諏訪之瀬島）,
1048,御岳,みたけ,,,,584,29.465,129.5947222,鹿児島県,吐☓喇列島（悪石島）,
1049,イマキラ岳,いまきらだけ,,,,292,29.14444444,129.2080556,鹿児島県,吐☓喇列島（宝島）,
1050,横当島,よこあてじま,,,,495,28.80083333,128.9947222,鹿児島県,吐☓喇列島（横当島）,
1051,湯湾岳,ゆわんだけ,,,,694,28.29611111,129.3211111,鹿児島県,奄美群島（奄美大島）,
1052,井之川岳,いのかわだけ,,,,645,27.77861111,128.9830556,鹿児島県,奄美群島（徳之島）,
1053,大山,おおやま,,,,240,27.36916667,128.5666667,鹿児島県,奄美群島（沖永良部島）,
1054,与那覇岳,よなはだけ,,,,503,26.71694444,128.2186111,沖縄県,沖縄島,
1055,八重岳,やえだけ,,,,453,26.63555556,127.9283333,沖縄県,沖縄島,
1056,恩納岳,おんなだけ,,,,363,26.47944444,127.8747222,沖縄県,沖縄島,
1057,於茂登岳,おもとだけ,,,,526,24.42722222,124.1833333,沖縄県,八重山列島（石垣島）,
1058,古見岳,こみだけ,,,,469,24.35916667,123.8911111,沖縄県,八重山列島（西表島）,
1059,宇良部岳,うらぶだけ,,,,231,24.45277778,123.0055556,沖縄県,八重山列島（与那国島）,