No,種類,名称,よみ,別名,別名よみ,グループ名,高さ,緯度,経度,都道府県,地域,備考
1,山岳,知床岳,しれとこだけ,,,知床,1254,44.23583333,145.2738889,北海道,知床・阿寒,
2,山岳,硫黄山,いおうざん,,,知床,1562,44.13333333,145.1613889,北海道,知床・阿寒,
5,山岳,羅臼岳,らうすだけ,,,知床,1661,44.07583333,145.1222222,北海道,知床・阿寒,日本百名山
6,山岳,遠音別岳,おんねべつだけ,,,知床,1330,43.99333333,145.0133333,北海道,知床・阿寒,
7,山岳,海別岳,うなべつだけ,,,知床,1419,43.87694444,144.8766667,北海道,知床・阿寒,
8,山岳,斜里岳,しゃりだけ,,,,1547,43.76555556,144.7177778,北海道,知床・阿寒,日本百名山
9,山岳,標津岳,しべつだけ,,,,1061,43.66805556,144.705,北海道,知床・阿寒,
10,山岳,藻琴山,もことやま,,,,1000,43.70444444,144.3311111,北海道,知床・阿寒,
11,山岳,アトサヌプリ,あとさぬぷり,硫黄山,いおうざん,,508,43.61027778,144.4386111,北海道,知床・阿寒,
12,山岳,カムイヌプリ,かむいぬぷり,摩周岳,ましゅうだけ,,857,43.57222222,144.5608333,北海道,知床・阿寒,
13,山岳,雄阿寒岳,おあかんだけ,,,,1370,43.45416667,144.1647222,北海道,知床・阿寒,
14,山岳,雌阿寒岳,めあかんだけ,,,,1499,43.38638889,144.0086111,北海道,知床・阿寒,日本百名山
16,山岳,ウコタキヌプリ,うこたきぬぷり,,,,747,43.20833333,143.7975,北海道,白糠丘陵,
17,島,礼文岳,れぶんだけ,,,,490,45.3725,141.0158333,北海道,礼文・利尻,
18,島,利尻山,りしりざん,,,,1721,45.17861111,141.2419444,北海道,礼文・利尻,日本百名山
19,山岳,幌尻山,ぽろしりやま,,,,427,45.16555556,142.0086111,北海道,宗谷丘陵,
20,山岳,パンケ山,ぱんけざん,,,,632,44.85694444,142.1497222,北海道,宗谷丘陵,
21,山岳,ポロヌプリ山,ぽろぬぷりざん,,,,841,44.96166667,142.4202778,北海道,北見山地,
22,山岳,敏音知岳,びんねしりだけ,,,,703,44.89305556,142.2344444,北海道,北見山地,
23,山岳,函岳,はこだけ,,,,1129,44.66583333,142.4122222,北海道,北見山地,
24,山岳,ピヤシリ山,ぴやしりやま,,,,987,44.43361111,142.5841667,北海道,北見山地,
25,山岳,欝岳,うつだけ,,,,818,44.29166667,143.0825,北海道,北見山地,
26,山岳,ウェンシリ岳,うぇんしりだけ,,,,1142,44.22888889,142.8763889,北海道,北見山地,
27,山岳,渚滑岳,しょこつだけ,,,,1345,44.04027778,142.9175,北海道,北見山地,
28,山岳,天塩岳,てしおだけ,,,,1558,43.96444444,142.8880556,北海道,北見山地,日本二百名山
29,山岳,チトカニウシ山,ちとかにうしやま,,,,1446,43.90666667,143.0486111,北海道,北見山地,
30,山岳,仁頃山,にころやま,,,,829,43.87833333,143.7183333,北海道,北見山地,
31,山岳,ニセイカウシュッペ山,にせいかうしゅっぺやま,,,,1883,43.78,142.9852778,北海道,石狩山地,
32,山岳,武利岳,むりいだけ,,,,1876,43.73305556,143.1763889,北海道,石狩山地,
33,山岳,武華山,むかやま,,,,1759,43.70583333,143.1605556,北海道,石狩山地,
34,山岳,北見富士,きたみふじ,,,,1291,43.69361111,143.2958333,北海道,石狩山地,
35,山岳,旭岳,あさひだけ,,,大雪山,2291,43.66361111,142.8541667,北海道,石狩山地,日本百名山
36,山岳,黒岳,くろだけ,,,大雪山,1984,43.6975,142.9202778,北海道,石狩山地,
37,山岳,北鎮岳,ほくちんだけ,,,大雪山,2244,43.69277778,142.8797222,北海道,石狩山地,
38,山岳,愛別岳,あいべつだけ,,,大雪山,2113,43.70777778,142.8572222,北海道,石狩山地,
39,山岳,白雲岳,はくうんだけ,,,大雪山,2230,43.66111111,142.9058333,北海道,石狩山地,
40,山岳,忠別岳,ちゅうべつだけ,,,十勝,1963,43.59111111,142.8944444,北海道,石狩山地,
41,山岳,トムラウシ山,とむらうしやま,,,十勝,2141,43.52722222,142.8488889,北海道,石狩山地,日本百名山
42,山岳,オプタテシケ山,おぷたてしけやま,,,十勝,2013,43.47027778,142.7516667,北海道,石狩山地,
44,山岳,十勝岳,とかちだけ,,,十勝,2077,43.41777778,142.6863889,北海道,石狩山地,日本百名山
46,山岳,富良野岳,ふらのだけ,,,十勝,1912,43.39361111,142.635,北海道,石狩山地,
47,山岳,三国山,みくにやま,,,,1541,43.59527778,143.1463889,北海道,石狩山地,
48,山岳,石狩岳,いしかりだけ,,,,1967,43.54666667,143.0222222,北海道,石狩山地,日本二百名山
50,山岳,ニペソツ山,にぺそつやま,,,,2013,43.45583333,143.0322222,北海道,石狩山地,日本二百名山
51,山岳,ウペペサンケ山,うぺぺさんけやま,,,,1848,43.38944444,143.0819444,北海道,石狩山地,
52,山岳,東ヌプカウシヌプリ,ひがしぬぷかうしぬぷり,,,,1252,43.24583333,143.1022222,北海道,石狩山地,
53,山岳,佐幌岳,さほろだけ,,,,1060,43.17333333,142.7811111,北海道,石狩山地,
54,山岳,西クマネシリ岳,にしくまねしりだけ,,,,1635,43.51916667,143.2333333,北海道,石狩山地,
55,山岳,東三国山,ひがしみくにやま,,,,1230,43.50833333,143.4636111,北海道,石狩山地,
56,山岳,喜登牛山,きとうしやま,,,,1312,43.44777778,143.4563889,北海道,石狩山地,
57,山岳,ピッシリ山,ぴっしりざん,,,,1032,44.35555556,142.0319444,北海道,天塩山地,
58,山岳,三頭山,さんとうさん,,,,1009,44.09166667,142.0858333,北海道,天塩山地,
59,山岳,ポロシリ山,ぽろしりやま,,,,730,43.9625,141.8361111,北海道,天塩山地,
60,山岳,暑寒別岳,しょかんべつだけ,,,,1492,43.71583333,141.5230556,北海道,増毛山地,日本二百名山
61,山岳,群別岳,くんべつだけ,,,,1376,43.68472222,141.4877778,北海道,増毛山地,
62,山岳,ピンネシリ,ぴんねしり,,,,1100,43.49194444,141.7066667,北海道,増毛山地,
63,山岳,イルムケップ山,いるむけっぷやま,,,,864,43.62916667,142.1102778,北海道,夕張山地,
64,山岳,富良野西岳,ふらのにしだけ,,,,1331,43.30916667,142.3116667,北海道,夕張山地,
65,山岳,芦別岳,あしべつだけ,,,,1726,43.23583333,142.2836111,北海道,夕張山地,日本二百名山
66,山岳,幾春別岳,いくしゅんべつだけ,,,,1068,43.22694444,142.1594444,北海道,夕張山地,
67,山岳,夕張岳,ゆうばりだけ,,,,1668,43.09972222,142.2511111,北海道,夕張山地,日本二百名山
68,山岳,ハッタオマナイ岳,はったおまないだけ,,,,1021,42.84694444,142.3130556,北海道,夕張山地,
69,山岳,トマム山,とまむさん,,,,1239,43.07861111,142.5961111,北海道,日高山脈,
70,山岳,芽室岳,めむろだけ,,,,1754,42.86888889,142.7852778,北海道,日高山脈,
71,山岳,剣山,つるぎやま,,,,1205,42.84861111,142.885,北海道,日高山脈,
72,山岳,チロロ岳,ちろろだけ,,,日高,1880,42.82555556,142.6752778,北海道,日高山脈,
73,山岳,ピパイロ岳,ぴぱいろだけ,,,日高,1916,42.77305556,142.7275,北海道,日高山脈,
75,山岳,幌尻岳,ぽろしりだけ,,,日高,2052,42.71944444,142.6827778,北海道,日高山脈,日本百名山
77,山岳,札内岳,さつないだけ,,,日高,1895,42.69388889,142.7966667,北海道,日高山脈,
79,山岳,イドンナップ岳,いどんなっぷだけ,,,日高,1752,42.63027778,142.6486111,北海道,日高山脈,
80,山岳,カムイエクウチカウシ山,かむいえくうちかうしやま,,,日高,1979,42.625,142.7663889,北海道,日高山脈,日本二百名山
81,山岳,１８３９峰,いっぱさんきゅうほう,,,日高,1842,42.53944444,142.8080556,北海道,日高山脈,
82,山岳,ペテガリ岳,ぺてがりだけ,,,日高,1736,42.49944444,142.8711111,北海道,日高山脈,日本二百名山
84,山岳,神威岳,かむいだけ,,,日高,1600,42.42833333,142.9069444,北海道,日高山脈,
85,山岳,ピリカヌプリ,ぴりかぬぷり,,,日高,1631,42.40222222,142.9666667,北海道,日高山脈,
86,山岳,楽古岳,らっこだけ,,,日高,1471,42.2725,143.1111111,北海道,日高山脈,
87,山岳,豊似岳,とよにだけ,,,,1105,42.07694444,143.2330556,北海道,日高山脈,
88,山岳,アポイ岳,あぽいだけ,,,,810,42.10777778,143.0255556,北海道,日高山脈,
89,山岳,藻岩山,もいわやま,,,,531,43.0225,141.3222222,北海道,支笏・洞爺・積丹,
90,山岳,手稲山,ていねやま,,,,1023,43.07666667,141.1925,北海道,支笏・洞爺・積丹,
91,山岳,余市岳,よいちだけ,,,,1488,43.03277778,141.0197222,北海道,支笏・洞爺・積丹,
92,山岳,本倶登山,ぽんくとさん,,,,1009,42.95527778,140.9125,北海道,支笏・洞爺・積丹,
93,山岳,無意根山,むいねやま,,,,1464,42.93083333,141.0405556,北海道,支笏・洞爺・積丹,
94,山岳,札幌岳,さっぽろだけ,,,,1293,42.90027778,141.2005556,北海道,支笏・洞爺・積丹,
95,山岳,空沼岳,そらぬまだけ,,,,1251,42.865,141.2536111,北海道,支笏・洞爺・積丹,
96,山岳,恵庭岳,えにわだけ,,,,1320,42.79333333,141.2852778,北海道,支笏・洞爺・積丹,
97,山岳,風不死岳,ふっぷしだけ,,,,1102,42.71694444,141.3588889,北海道,支笏・洞爺・積丹,
98,山岳,樽前山,たるまえさん,,,,1041,42.69055556,141.3766667,北海道,支笏・洞爺・積丹,日本二百名山
99,山岳,ホロホロ山,ほろほろやま,,,,1322,42.63361111,141.1425,北海道,支笏・洞爺・積丹,
100,山岳,余別岳,よべつだけ,,,,1298,43.26,140.4591667,北海道,支笏・洞爺・積丹,
101,山岳,天狗岳,てんぐだけ,,,,872,43.18472222,140.6608333,北海道,支笏・洞爺・積丹,
102,山岳,雷電山,らいでんやま,,,,1211,42.90361111,140.4697222,北海道,支笏・洞爺・積丹,
103,山岳,目国内岳,めくんないだけ,,,,1220,42.89972222,140.5152778,北海道,支笏・洞爺・積丹,
104,山岳,ニセコアンヌプリ,にせこあんぬぷり,,,,1308,42.875,140.6588889,北海道,支笏・洞爺・積丹,
105,山岳,羊蹄山,ようていざん,後方羊蹄山,しりべしやま,,1898,42.82666667,140.8113889,北海道,支笏・洞爺・積丹,日本百名山
106,山岳,尻別岳,しりべつだけ,,,,1107,42.7725,140.9102778,北海道,支笏・洞爺・積丹,
107,山岳,貫気別山,ぬっきべつやま,,,,994,42.71,140.9227778,北海道,支笏・洞爺・積丹,
108,山岳,昆布岳,こんぶだけ,,,,1045,42.71027778,140.6555556,北海道,支笏・洞爺・積丹,
109,山岳,昭和新山,しょうわしんざん,,,,398,42.5425,140.8644444,北海道,支笏・洞爺・積丹,
110,山岳,有珠山,うすざん,,,,733,42.54388889,140.8391667,北海道,支笏・洞爺・積丹,
111,山岳,母衣月山,ほろづきやま,,,,504,42.77,140.215,北海道,渡島半島,
112,山岳,大平山,おおびらやま,,,,1191,42.63583333,140.1355556,北海道,渡島半島,
113,山岳,狩場山,かりばやま,,,,1520,42.61333333,139.9405556,北海道,渡島半島,
114,山岳,毛無山,けなしやま,,,,816,42.29527778,139.8105556,北海道,渡島半島,
115,山岳,遊楽部岳,ゆうらっぷだけ,見市岳,けんいちだけ,,1277,42.21916667,140.0105556,北海道,渡島半島,
116,山岳,乙部岳,おとべだけ,,,,1017,42.03944444,140.2747222,北海道,渡島半島,
117,山岳,駒ヶ岳,こまがたけ,,,,1131,42.06333333,140.6772222,北海道,渡島半島,日本二百名山
118,山岳,横津岳,よこつだけ,,,,1167,41.93777778,140.7713889,北海道,渡島半島,
119,山岳,恵山,えさん,,,,618,41.80472222,141.1661111,北海道,渡島半島,
120,山岳,函館山,はこだてやま,,,,334,41.75888889,140.7041667,北海道,渡島半島,
121,山岳,八幡岳,はちまんだけ,,,,665,41.85194444,140.23,北海道,渡島半島,
122,山岳,桂岳,かつらだけ,,,,734,41.78916667,140.4644444,北海道,渡島半島,
123,山岳,七ッ岳,ななつだけ,,,,957,41.62416667,140.2141667,北海道,渡島半島,
124,山岳,大千軒岳,だいせんげんだけ,,,,1072,41.57944444,140.1608333,北海道,渡島半島,
125,山岳,岩部岳,いわべだけ,,,,794,41.52722222,140.3108333,北海道,渡島半島,
126,島,神威山,かむいやま,,,,584,42.16027778,139.4427778,北海道,奥尻島,
127,山岳,江良岳,えらだけ,,,,732,41.51,139.3672222,北海道,渡島大島,
128,山岳,燧岳,ひうちだけ,,,,781,41.43916667,141.0530556,青森県,下北半島,
129,山岳,釜臥山,かまふせやま,,,,878,41.27861111,141.12,青森県,恐山山地,
130,山岳,桑畑山,くわはたやま,,,,400,41.3875,141.4408333,青森県,下北半島,
131,山岳,吹越烏帽子,ふっこしえぼし,,,,508,41.0375,141.3172222,青森県,下北半島,
132,山岳,丸屋形岳,まるやがただけ,,,,718,41.15277778,140.5866667,青森県,津軽半島,
133,山岳,四ッ滝山,よつだきやま,,,,670,41.12166667,140.4005556,青森県,津軽半島,
134,山岳,梵珠山,ぼんじゅさん,,,,468,40.79972222,140.5755556,青森県,津軽半島,
135,山岳,階上岳,はしかみだけ,種市岳,たねいちだけ,,739,40.40083333,141.5844444,青森県 岩手県,北上高地,
136,山岳,名久井岳,なくいだけ,,,,615,40.38805556,141.3083333,青森県,北上高地,
137,山岳,折爪岳,おりつめだけ,,,,852,40.26888889,141.3744444,岩手県,北上高地,
138,山岳,安家森,あっかもり,,,,1239,40.03805556,141.5411111,岩手県,北上高地,
139,山岳,遠島山,とおしまやま,,,,1262,40.02055556,141.6441667,岩手県,北上高地,
140,山岳,三巣子岳,みすごだけ,,,,1181,39.9,141.4855556,岩手県,北上高地,
141,山岳,姫神山,ひめかみさん,,,,1124,39.84416667,141.2469444,岩手県,北上高地,日本二百名山
142,山岳,堺ノ神岳,さかいのかみだけ,,,,1319,39.75027778,141.6263889,岩手県,北上高地,
143,山岳,害鷹森,がいたかもり,,,,1304,39.71166667,141.6044444,岩手県,北上高地,
144,山岳,青松葉山,あおまつばやま,,,,1365,39.6975,141.4836111,岩手県,北上高地,
145,山岳,峠ノ神山,とうげのかみやま,,,,1229,39.72694444,141.7811111,岩手県,北上高地,
146,山岳,早池峰山,はやちねさん,,,,1917,39.55861111,141.4886111,岩手県,北上高地,日本百名山
147,山岳,薬師岳,やくしだけ,,,,1645,39.53,141.4958333,岩手県,北上高地,
148,山岳,十二神山,じゅうにしんざん,,,,731,39.53861111,141.975,岩手県,北上高地,
149,山岳,六角牛山,ろっこうしさん,,,,1293,39.31833333,141.6502778,岩手県,北上高地,
150,山岳,五葉山,ごようざん,,,,1351,39.20527778,141.7322222,岩手県,北上高地,
151,山岳,物見山,ものみやま,,,,870,39.20111111,141.4016667,岩手県,北上高地,
152,山岳,氷上山,ひかみさん,,,,874,39.05888889,141.6605556,岩手県,北上高地,
153,山岳,室根山,むろねさん,,,,895,38.97527778,141.4472222,岩手県,北上高地,
154,山岳,徳仙丈山,とくせんじょうやま,,,,710,38.84833333,141.47,宮城県,北上高地,
155,山岳,金華山,きんかさん,,,,444,38.29527778,141.5666667,宮城県,北上高地,
156,山岳,八甲田山,はっこうださん,大岳,おおだけ,,1585,40.65888889,140.8772222,青森県,八甲田山とその周辺,日本百名山
158,山岳,櫛ヶ峯,くしがみね,上岳,かみだけ,,1517,40.60305556,140.8425,青森県,八甲田山とその周辺,
159,山岳,戸来岳,へらいだけ,三ッ岳,みつだけ,,1159,40.45305556,141.0013889,青森県,八甲田山とその周辺,
160,山岳,白地山,しろじやま,,,,1034,40.44722222,140.7880556,秋田県,八甲田山とその周辺,
161,山岳,中岳,なかだけ,,,,1024,40.24611111,140.9444444,秋田県 岩手県,奥羽山脈北部,
162,山岳,稲庭岳,いなにわだけ,,,,1078,40.19861111,141.0461111,岩手県,奥羽山脈北部,
163,山岳,五ノ宮嶽,ごのみやだけ,,,,1115,40.14583333,140.8458333,秋田県,奥羽山脈北部,
164,山岳,七時雨山,ななしぐれやま,,,,1063,40.06916667,141.1055556,岩手県,奥羽山脈北部,
165,山岳,森吉山,もりよしざん,,,,1454,39.97666667,140.5441667,秋田県,奥羽山脈北部,日本二百名山
166,山岳,焼山,やけやま,,,,1366,39.96388889,140.7569444,秋田県,奥羽山脈北部,
167,山岳,八幡平,はちまんたい,,,,1613,39.95777778,140.8541667,岩手県,奥羽山脈北部,日本百名山
170,山岳,大深岳,おおふかだけ,,,,1541,39.88111111,140.8797222,岩手県 秋田県,奥羽山脈北部,
171,山岳,岩手山,いわてさん,,,,2038,39.8525,141.0011111,岩手県,奥羽山脈北部,日本百名山
172,山岳,烏帽子岳,えぼしだけ,乳頭山,にゅうとうざん,,1478,39.805,140.8386111,岩手県 秋田県,奥羽山脈北部,
173,山岳,秋田駒ヶ岳,あきたこまがたけ,男女岳,おなめだけ,,1637,39.76111111,140.7994444,秋田県,奥羽山脈北部,日本二百名山
174,山岳,岩木山,いわきさん,,,,1625,40.65583333,140.3030556,青森県,白神山地,日本百名山
176,山岳,白神岳,しらかみだけ,,,,1235,40.5075,140.0183333,青森県,白神山地,日本二百名山
177,山岳,二ッ森,ふたつもり,,,,1086,40.435,140.1177778,青森県 秋田県,白神山地,
178,山岳,駒ヶ岳,こまがたけ,,,,1158,40.41277778,140.2511111,秋田県,白神山地,
179,山岳,田代岳,たしろだけ,,,,1178,40.42861111,140.4088889,秋田県,白神山地,
180,山岳,房住山,ぼうじゅうさん,,,,409,40.06055556,140.2161111,秋田県,出羽山地,
181,山岳,太平山,たいへいざん,,,,1170,39.79694444,140.3105556,秋田県,出羽山地,
182,山岳,大仏岳,だいぶつだけ,,,,1167,39.81361111,140.5155556,秋田県,出羽山地,
183,山岳,東光山,とうこうさん,,,,594,39.40638889,140.1616667,秋田県,出羽山地,
184,山岳,八塩山,やしおやま,,,,713,39.23666667,140.2277778,秋田県,出羽山地,
185,山岳,鳥海山,ちょうかいざん,,,,2236,39.09916667,140.0488889,山形県,出羽山地,日本百名山
186,山岳,丁岳,ひのとだけ,,,,1146,39.03194444,140.2194444,秋田県 山形県,出羽山地,
187,山岳,甑山,こしきやま,,,,981,39.01194444,140.3105556,山形県,出羽山地,
188,山岳,加無山,かぶやま,,,,997,39.00944444,140.2602778,山形県,出羽山地,
189,山岳,寒風山,かんぷうざん,,,,355,39.93361111,139.8752778,秋田県,男鹿半島,
190,山岳,本山,ほんざん,,,,715,39.90694444,139.7538889,秋田県,男鹿半島,
191,山岳,東根山,あずまねやま,,,,928,39.5875,141.0597222,岩手県,奥羽山脈中部,
192,山岳,和賀岳,わがだけ,,,,1439,39.57027778,140.7541667,岩手県 秋田県,奥羽山脈中部,日本二百名山
193,山岳,真昼岳,まひるだけ,,,,1059,39.44777778,140.6766667,岩手県 秋田県,奥羽山脈中部,
194,山岳,黒森,くろもり,,,,944,39.34833333,140.8683333,岩手県,奥羽山脈中部,
195,山岳,焼石岳,やけいしだけ,,,,1547,39.16361111,140.8288889,岩手県,奥羽山脈中部,日本二百名山
196,山岳,栗駒山,くりこまやま,,,,1626,38.96083333,140.7883333,岩手県 宮城県,奥羽山脈中部,日本二百名山
197,山岳,高松岳,たかまつだけ,,,,1348,38.9675,140.6063889,秋田県,奥羽山脈中部,
198,山岳,虎毛山,とらげさん,,,,1433,38.90472222,140.6188889,秋田県,奥羽山脈中部,
199,山岳,荒雄岳,あらおだけ,,,,984,38.83305556,140.6916667,宮城県,奥羽山脈中部,
200,山岳,神室山,かむろさん,,,,1365,38.90222222,140.4922222,秋田県 山形県,奥羽山脈中部,日本二百名山
201,山岳,火打岳,ひうちだけ,,,,1238,38.84027778,140.4486111,山形県,奥羽山脈中部,
202,山岳,杢蔵山,もくぞうやま,,,,1026,38.78944444,140.4013889,山形県,奥羽山脈中部,
203,山岳,禿岳,かむろだけ,小鏑山,こかぶらやま,,1261,38.81083333,140.595,山形県 宮城県,奥羽山脈中部,
204,山岳,箟岳山,ののだけやま,,,,236,38.56583333,141.1786111,宮城県,奥羽山脈南部,
205,山岳,大高森,おおたかもり,,,,105,38.34055556,141.1525,宮城県,奥羽山脈南部,
206,山岳,翁山,おきなさん,,,,1075,38.65083333,140.5447222,山形県,奥羽山脈南部,
207,山岳,薬莱山,やくらいさん,,,,553,38.57555556,140.7052778,宮城県,奥羽山脈南部,
208,山岳,船形山,ふながたやま,御所山,ごしょざん,,1500,38.45555556,140.62,宮城県 山形県,奥羽山脈南部,日本二百名山
209,山岳,泉ヶ岳,いずみがたけ,,,,1175,38.41194444,140.7088889,宮城県,奥羽山脈南部,
210,山岳,太白山,たいはくさん,,,,321,38.235,140.8022222,宮城県,奥羽山脈南部,
211,山岳,大東岳,だいとうだけ,,,,1365,38.30222222,140.5236111,宮城県,奥羽山脈南部,
212,山岳,熊野岳,くまのだけ,,,蔵王,1841,38.14361111,140.44,山形県,蔵王山とその周辺,日本百名山
214,山岳,屏風岳,びょうぶだけ,,,蔵王,1825,38.09583333,140.4761111,宮城県,蔵王山とその周辺,
216,山岳,青麻山,あおそやま,,,,799,38.08472222,140.6075,宮城県,蔵王山とその周辺,
217,山岳,栗子山,くりこやま,,,,1217,37.87444444,140.27,福島県 山形県,吾妻山とその周辺,
218,山岳,信夫山,しのぶやま,,,,275,37.77083333,140.4616667,福島県,吾妻山とその周辺,
219,山岳,西吾妻山,にしあづまやま,,,吾妻,2035,37.73833333,140.1408333,福島県 山形県,吾妻山とその周辺,日本百名山
222,山岳,東吾妻山,ひがしあづまやま,,,吾妻,1975,37.71166667,140.2302778,福島県,吾妻山とその周辺,
223,山岳,一切経山,いっさいきょうざん,,,吾妻,1949,37.73527778,140.2444444,福島県,吾妻山とその周辺,
224,山岳,吾妻小富士,あづまこふじ,,,吾妻,1707,37.72222222,140.2636111,福島県,吾妻山とその周辺,
227,山岳,安達太良山,あだたらやま,,,,1700,37.62111111,140.2877778,福島県,吾妻山とその周辺,日本百名山
228,山岳,磐梯山,ばんだいさん,,,,1816,37.60111111,140.0722222,福島県,吾妻山とその周辺,日本百名山
229,山岳,高館山　,たかだてやま,,,,273,38.76305556,139.7475,山形県,朝日山地,
230,山岳,金峰山,きんぼうさん,,,,471,38.68222222,139.7980556,山形県,朝日山地,
231,山岳,羽黒山,はぐろさん,,,,414,38.7025,139.9827778,山形県,朝日山地,
232,山岳,月山,がっさん,,,,1984,38.54888889,140.0269444,山形県,朝日山地,日本百名山
233,山岳,葉山,はやま,,,,1462,38.52916667,140.2105556,山形県,朝日山地,
234,山岳,温海岳,あつみだけ,,,,736,38.62,139.6308333,山形県,朝日山地,
235,山岳,摩耶山,まやさん,,,,1020,38.52027778,139.7277778,山形県,朝日山地,
236,山岳,以東岳,いとうだけ,,,朝日,1772,38.34305556,139.8491667,山形県 新潟県,朝日山地,日本二百名山
237,山岳,大朝日岳,おおあさひだけ,,,朝日,1871,38.26055556,139.9222222,山形県,朝日山地,日本百名山
238,山岳,祝瓶山　,いわいがめやま,,,朝日,1417,38.1975,139.8797222,山形県,朝日山地,
239,山岳,鷲ヶ巣山,わしがすやま,,,,1093,38.22194444,139.6688889,新潟県,朝日山地,
240,山岳,新保岳,しんぼだけ,,,,852,38.36111111,139.5108333,新潟県,朝日山地,
241,山岳,白鷹山,しらたかやま,,,,994,38.22277778,140.1730556,山形県,朝日山地,
242,山岳,杁差岳,えぶりさしだけ,,,飯豊,1636,37.9425,139.6088889,新潟県,飯豊山地,日本二百名山
243,山岳,北股岳,きたまただけ,,,飯豊,2025,37.88,139.6386111,新潟県 山形県,飯豊山地,
244,山岳,飯豊山,いいでさん,,,飯豊,2105,37.85472222,139.7072222,福島県,飯豊山地,日本百名山
245,山岳,大日岳,だいにちだけ,,,飯豊,2128,37.83277778,139.6602778,新潟県,飯豊山地,
246,山岳,二王子岳,にのうじだけ,,,,1420,37.89972222,139.4991667,新潟県,飯豊山地,日本二百名山
247,山岳,五頭山,ごずさん,,,,912,37.80111111,139.3455556,新潟県,飯豊山地,
248,山岳,高陽山,こうようざん,,,,1126,37.72916667,139.6497222,福島県 新潟県,飯豊山地,
249,山岳,飯森山,いいもりさん,,,,1595,37.81388889,139.9255556,山形県 福島県,飯豊山地,
250,山岳,霊山,りょうぜん,,,,825,37.76888889,140.6875,福島県,阿武隈高地,
251,山岳,日山,ひやま,天王山,てんのうざん,,1057,37.54305556,140.6836111,福島県,阿武隈高地,
252,山岳,鎌倉岳,かまくらだけ,,,,967,37.46694444,140.6888889,福島県,阿武隈高地,
253,山岳,大滝根山,おおたきねやま,,,,1192,37.355,140.7016667,福島県,阿武隈高地,
254,山岳,屹兎屋山,きっとやさん,,,,875,37.21055556,140.8675,福島県,阿武隈高地,
255,山岳,蓬田岳,よもぎだだけ,,,,952,37.26583333,140.5347222,福島県,阿武隈高地,
256,山岳,三大明神山,さんだいみょうじんやま,,,,706,37.05194444,140.7625,福島県,阿武隈高地,
257,山岳,竪破山,たつわれさん,,,,658,36.71083333,140.5622222,茨城県,阿武隈高地,
258,山岳,男体山,なんたいさん,,,,654,36.72416667,140.4197222,茨城県,阿武隈高地,
259,山岳,高鈴山,たかすずやま,,,,623,36.62111111,140.5877778,茨城県,阿武隈高地,
260,山岳,八溝山,やみぞさん,,,,1022,36.93027778,140.2730556,茨城県 福島県,八溝山地,
261,山岳,吾国山,わがくにさん,,,,518,36.32194444,140.2011111,茨城県,筑波山とその周辺,
262,山岳,加波山,かばさん,,,,709,36.29888889,140.1436111,茨城県,筑波山とその周辺,
263,山岳,筑波山,つくばさん,,,,877,36.22527778,140.1066667,茨城県,筑波山とその周辺,日本百名山
264,山岳,三本槍岳,さんぼんやりだけ,,,那須,1917,37.15027778,139.9613889,福島県 栃木県,那須・日光,
265,山岳,茶臼岳,ちゃうすだけ,,,那須,1915,37.12472222,139.9630556,栃木県,那須・日光,日本百名山
266,山岳,男鹿岳,おがたけ,,,,1777,37.08527778,139.8219444,福島県 栃木県,那須・日光,
267,山岳,大佐飛山,おおさびやま,,,,1908,37.06361111,139.8444444,栃木県,那須・日光,
268,山岳,釈迦ヶ岳,しゃかがだけ,高原山,たかはらやま,,1795,36.9,139.7766667,栃木県,那須・日光,
269,山岳,女峰山,にょほうさん,,,日光,2483,36.81138889,139.5363889,栃木県,那須・日光,日本二百名山
273,山岳,男体山,なんたいさん,,,日光,2486,36.765,139.4908333,栃木県,那須・日光,日本百名山
274,山岳,白根山,しらねさん,,,,2578,36.79861111,139.3758333,群馬県 栃木県,那須・日光,日本百名山
275,山岳,皇海山,すかいさん,,,,2144,36.69,139.3369444,栃木県 群馬県,那須・日光,日本百名山
276,山岳,庚申山,こうしんざん,,,,1892,36.67305556,139.3611111,栃木県,那須・日光,
277,山岳,袈裟丸山,けさまるやま,,,,1961,36.64944444,139.3272222,栃木県 群馬県,那須・日光,
278,山岳,横根山,よこねやま,,,,1373,36.61972222,139.5222222,栃木県,那須・日光,
279,山岳,赤城山,あかぎやま,黒檜山,くろびさん,,1828,36.56027778,139.1933333,群馬県,那須・日光,日本百名山
281,山岳,博士山,はかせやま,,,,1482,37.36305556,139.7147222,福島県,南会津・尾瀬,
282,山岳,小野岳,おのだけ,,,,1383,37.32583333,139.8866667,福島県,南会津・尾瀬,
283,山岳,七ヶ岳,ななつがたけ,一番岳,いちばんだけ,,1636,37.12416667,139.6575,福島県,南会津・尾瀬,
284,山岳,荒海山,あらかいざん,太郎岳,たろうだけ,,1581,37.03611111,139.6436111,福島県 栃木県,南会津・尾瀬,
285,山岳,田代山,たしろやま,,,,1971,36.97444444,139.4783333,福島県,南会津・尾瀬,
286,山岳,帝釈山,たいしゃくざん,,,,2060,36.96972222,139.46,福島県 栃木県,南会津・尾瀬,日本二百名山
287,山岳,黒岩山,くろいわやま,,,,2163,36.90888889,139.3936111,栃木県 群馬県,南会津・尾瀬,
288,山岳,鬼怒沼山,きぬぬまやま,,,,2141,36.88277778,139.3716667,栃木県 群馬県,南会津・尾瀬,
289,山岳,朝日岳,あさひだけ,,,,1624,37.22111111,139.3397222,福島県,南会津・尾瀬,日本二百名山
290,山岳,丸山岳,まるやまだけ,,,,1820,37.17277778,139.3347222,福島県,南会津・尾瀬,
291,山岳,会津駒ヶ岳,あいづこまがたけ,,,,2133,37.0475,139.3536111,福島県,南会津・尾瀬,日本百名山
292,山岳,平ヶ岳,ひらがたけ,,,,2141,37.00194444,139.1708333,群馬県 新潟県,南会津・尾瀬,日本百名山
293,山岳,景鶴山,けいづるやま,,,,2004,36.95694444,139.2105556,群馬県 新潟県,南会津・尾瀬,
294,山岳,燧ヶ岳,ひうちがたけ,,,,2356,36.955,139.2852778,福島県,南会津・尾瀬,日本百名山
295,山岳,至仏山,しぶつさん,,,,2228,36.90361111,139.1733333,群馬県,南会津・尾瀬,日本百名山
296,山岳,武尊山,ほたかやま,,,,2158,36.80527778,139.1325,群馬県,南会津・尾瀬,日本百名山
297,山岳,御神楽岳,みかぐらだけ,,,,1386,37.52194444,139.4258333,新潟県,越後山脈,日本二百名山
298,山岳,粟ヶ岳,あわがたけ,,,,1293,37.55527778,139.1886111,新潟県,越後山脈,
299,山岳,矢筈岳,やはずだけ,,,,1257,37.5125,139.2661111,新潟県,越後山脈,
300,山岳,守門岳,すもんだけ,,,,1537,37.39777778,139.1366667,新潟県,越後山脈,日本二百名山
301,山岳,浅草岳,あさくさだけ,,,,1585,37.34361111,139.2336111,新潟県 福島県,越後山脈,
302,山岳,毛猛山,けもうやま,,,,1517,37.25666667,139.1752778,福島県 新潟県,越後山脈,
303,山岳,未丈ヶ岳,みじょうがたけ,,,,1553,37.18333333,139.1894444,新潟県,越後山脈,
304,山岳,越後駒ヶ岳,えちごこまがたけ,,,越後三山,2003,37.12361111,139.0752778,新潟県,越後山脈,日本百名山
305,山岳,八海山,はっかいさん,入道岳,にゅうどうだけ,越後三山,1778,37.10388889,139.0247222,新潟県,越後山脈,日本二百名山
306,山岳,中ノ岳,なかのだけ,,,越後三山,2085,37.08527778,139.0775,新潟県,越後山脈,日本二百名山
307,山岳,荒沢岳,あらさわだけ,,,,1969,37.10055556,139.1480556,新潟県,越後山脈,日本二百名山
308,山岳,下津川山,しもつごうやま,,,,1928,36.99472222,139.05,新潟県 群馬県,越後山脈,
309,山岳,巻機山,まきはたやま,,,,1967,36.97861111,138.9641667,群馬県 新潟県,越後山脈,日本百名山
310,山岳,大源太山,だいげんたさん,,,,1598,36.9025,138.9269444,新潟県,越後山脈,
311,山岳,朝日岳,あさひだけ,,,,1945,36.88055556,138.9725,群馬県,越後山脈,
312,山岳,白毛門,しらがもん,,,,1720,36.85972222,138.9672222,群馬県,越後山脈,
313,山岳,茂倉岳,しげくらだけ,,,谷川,1978,36.84916667,138.9166667,群馬県 新潟県,越後山脈,
315,山岳,オキノ耳,おきのみみ,,,谷川,1977,36.83722222,138.93,群馬県 新潟県,越後山脈,日本百名山
316,山岳,万太郎山,まんたろうさん,,,谷川,1954,36.82416667,138.8791667,群馬県 新潟県,越後山脈,
317,山岳,仙ノ倉山,せんのくらやま,,,谷川,2026,36.8175,138.8394444,群馬県 新潟県,越後山脈,日本二百名山
318,山岳,吾妻耶山,あづまやさん,,,,1341,36.74638889,138.9272222,群馬県,越後山脈,
319,山岳,苗場山,なえばさん,,,,2145,36.84583333,138.6902778,新潟県 長野県,苗場山・白根山・浅間山,日本百名山
320,山岳,佐武流山,さぶりゅうやま,,,,2192,36.77222222,138.6705556,新潟県 長野県,苗場山・白根山・浅間山,日本二百名山
321,山岳,白砂山,しらすなやま,,,,2140,36.73805556,138.6936111,群馬県 長野県,苗場山・白根山・浅間山,日本二百名山
322,山岳,鳥甲山,とりかぶとやま,,,,2038,36.83916667,138.5838889,長野県,苗場山・白根山・浅間山,日本二百名山
323,山岳,高社山,こうしゃさん,,,,1351,36.79916667,138.4038889,長野県,苗場山・白根山・浅間山,
325,山岳,岩菅山,いわすげやま,,,,2295,36.74194444,138.5594444,長野県,苗場山・白根山・浅間山,日本二百名山
326,山岳,志賀山,しがやま,,,,2037,36.70027778,138.5158333,長野県,苗場山・白根山・浅間山,
327,山岳,笠ヶ岳,かさがたけ,,,,2076,36.67666667,138.4813889,長野県,苗場山・白根山・浅間山,
328,山岳,横手山,よこてやま,,,,2307,36.66888889,138.5258333,群馬県 長野県,苗場山・白根山・浅間山,
330,山岳,草津白根山,くさつしらねさん,本白根山,もとしらねさん,,2171,36.62277778,138.5319444,群馬県,苗場山・白根山・浅間山,日本百名山
331,山岳,四阿山,あずまやさん,,,,2354,36.54166667,138.4130556,長野県 群馬県,苗場山・白根山・浅間山,日本百名山
333,山岳,湯ノ丸山,ゆのまるやま,,,,2101,36.43472222,138.4011111,長野県 群馬県,苗場山・白根山・浅間山,
334,山岳,篭ノ登山,かごのとやま,,,,2228,36.41944444,138.4472222,長野県 群馬県,苗場山・白根山・浅間山,
335,山岳,浅間山,あさまやま,,,,2568,36.40666667,138.5230556,群馬県 長野県,苗場山・白根山・浅間山,日本百名山
336,山岳,浅間隠山,あさまかくしやま,,,,1757,36.45361111,138.6525,群馬県,苗場山・白根山・浅間山,日本二百名山
337,山岳,鼻曲山,はなまがりやま,,,,1655,36.41083333,138.6455556,群馬県,苗場山・白根山・浅間山,
338,山岳,榛名山,はるなさん,掃部ヶ岳,かもんがたけ,,1449,36.4775,138.8508333,群馬県,苗場山・白根山・浅間山,日本二百名山
339,山岳,子持山,こもちやま,,,,1296,36.59194444,138.9977778,群馬県,苗場山・白根山・浅間山,
340,山岳,妙義山,みょうぎさん,相馬岳,そうまだけ,,1104,36.29861111,138.7488889,群馬県,関東山地,日本二百名山
341,山岳,荒船山,あらふねやま,,,,1423,36.20388889,138.6372222,群馬県 長野県,関東山地,日本二百名山
342,山岳,赤久縄山,あかぐなやま,,,,1523,36.14361111,138.8433333,群馬県,関東山地,
343,山岳,御荷鉾山,みかぼやま,,,,1287,36.15222222,138.9183333,群馬県,関東山地,
344,山岳,二子山,ふたごやま,,,,1166,36.06972222,138.8636111,埼玉県,関東山地,
345,山岳,両神山,りょうかみさん,,,,1723,36.02333333,138.8413889,埼玉県,関東山地,日本百名山
346,山岳,御座山,おぐらさん,,,,2112,36.03388889,138.6066667,長野県,関東山地,日本二百名山
348,山岳,甲武信ヶ岳,こぶしがたけ,,,奥秩父,2475,35.90888889,138.7288889,埼玉県 山梨県 長野県,関東山地,日本百名山
350,山岳,瑞牆山,みずがきやま,,,奥秩父,2230,35.89333333,138.5919444,山梨県,関東山地,日本百名山
351,山岳,金峰山,きんぷさん,,,奥秩父,2599,35.87138889,138.6252778,山梨県 長野県,関東山地,日本百名山
353,山岳,国師ヶ岳,こくしがたけ,,,奥秩父,2592,35.87083333,138.6730556,山梨県 長野県,関東山地,
355,山岳,乾徳山,けんとくさん,,,,2031,35.82305556,138.715,山梨県,関東山地,日本二百名山
356,山岳,小楢山,こならやま,,,,1713,35.78166667,138.6641667,山梨県,関東山地,
357,山岳,茅ヶ岳,かやがたけ,,,,1704,35.795,138.5138889,山梨県,関東山地,日本二百名山
358,山岳,堂平山,どうだいらさん,,,,876,36.00583333,139.19,埼玉県,関東山地,
359,山岳,武甲山,ぶこうさん,,,,1304,35.95166667,139.0977778,埼玉県,関東山地,日本二百名山
360,山岳,伊豆ヶ岳,いずがたけ,,,,851,35.92694444,139.1605556,埼玉県,関東山地,
361,山岳,川乗山,かわのりやま,,,,1363,35.85083333,139.1069444,東京都,関東山地,
362,山岳,酉谷山,とりだにやま,,,,1718,35.89722222,139.0102778,埼玉県 東京都,関東山地,
363,山岳,雲取山,くもとりやま,,,奥秩父,2017,35.85555556,138.9438889,埼玉県 東京都,関東山地,日本百名山
364,山岳,白石山,はくせきさん,,,奥秩父,2036,35.89944444,138.8780556,埼玉県,関東山地,日本二百名山
365,山岳,唐松尾山,からまつおやま,,,奥秩父,2109,35.86777778,138.8452778,埼玉県 山梨県,関東山地,
366,山岳,大洞山,おおぼらやま,飛龍山,ひりゅうやま,奥秩父,2077,35.84,138.8922222,埼玉県 山梨県,関東山地,
367,山岳,鶏冠山,けいかんやま,黒川山,くろかわやま,,1716,35.78861111,138.8358333,山梨県,関東山地,
368,山岳,大菩薩嶺,だいぼさつれい,,,,2057,35.74888889,138.8455556,山梨県,関東山地,日本百名山
369,山岳,小金沢山,こがねざわやま,,,,2014,35.71694444,138.8566667,山梨県,関東山地,
370,山岳,雁ケ腹摺山,がんがはらすりやま,,,,1874,35.68694444,138.885,山梨県,関東山地,
371,山岳,権現山,ごんげんやま,,,,1312,35.66777778,139.0213889,山梨県,関東山地,
372,山岳,扇山,おうぎやま,,,,1138,35.63722222,139.0138889,山梨県,関東山地,
373,山岳,三頭山,みとうさん,,,,1531,35.73916667,139.0138889,東京都,関東山地,
374,山岳,大岳山,おおだけさん,,,,1266,35.76527778,139.1302778,東京都,関東山地,日本二百名山
375,山岳,陣馬山,じんばさん,,,,855,35.65222222,139.1666667,東京都 神奈川県,関東山地,
376,山岳,高尾山,たかおさん,,,,599,35.62527778,139.2436111,東京都,関東山地,
377,山岳,清澄山,きよすみやま,妙見山,みょうけんやま,,377,35.1625,140.1522222,千葉県,房総・三浦,
378,山岳,鹿野山,かのうざん,,,,379,35.25555556,139.9716667,千葉県,房総・三浦,
379,山岳,鋸山,のこぎりやま,,,,329,35.16027778,139.8408333,千葉県,房総・三浦,
380,山岳,富山,とみさん,,,,349,35.09888889,139.8813889,千葉県,房総・三浦,
381,山岳,伊予ヶ岳,いよがたけ,,,,336,35.10722222,139.9138889,千葉県,房総・三浦,
382,山岳,愛宕山,あたごやま,,,,408,35.115,139.9869444,千葉県,房総・三浦,
383,山岳,大山,おおやま,,,,193,34.96416667,139.7777778,千葉県,房総・三浦,
384,山岳,大楠山,おおぐすやま,,,,241,35.25,139.6280556,神奈川県,房総・三浦,
385,山岳,大山,おおやま,,,丹沢,1252,35.44083333,139.2313889,神奈川県,丹沢山地,
386,山岳,蛭ヶ岳,ひるがたけ,,,丹沢,1673,35.48638889,139.1388889,神奈川県,丹沢山地,
387,山岳,丹沢山,たんざわさん,,,丹沢,1567,35.47416667,139.1627778,神奈川県,丹沢山地,日本百名山
388,山岳,塔ノ岳,とうのだけ,,,丹沢,1491,35.45416667,139.1633333,神奈川県,丹沢山地,
389,山岳,大室山,おおむろやま,,,丹沢,1587,35.51083333,139.0686111,神奈川県 山梨県,丹沢山地,
390,山岳,御正体山,みしょうたいやま,,,,1681,35.48694444,138.9316667,山梨県,丹沢山地,日本二百名山
391,山岳,菰釣山,こもつるしやま,,,,1379,35.46388889,138.9786111,神奈川県 山梨県,丹沢山地,
392,山岳,三ッ峠山,みつとうげやま,,,,1785,35.54916667,138.8091667,山梨県,富士山とその周辺,日本二百名山
393,山岳,黒岳,くろたけ,,,,1793,35.55194444,138.7494444,山梨県,富士山とその周辺,
394,山岳,釈迦ヶ岳,しゃかがたけ,,,,1641,35.56305556,138.7202778,山梨県,富士山とその周辺,
395,山岳,節刀ヶ岳,せっとうがたけ,,,,1736,35.52861111,138.6833333,山梨県,富士山とその周辺,
396,山岳,富士山,ふじさん,,,,3776,35.36083333,138.7275,山梨県 静岡県,富士山とその周辺,日本百名山
397,山岳,愛鷹山,あしたかやま,越前岳,えちぜんだけ,,1504,35.23805556,138.7938889,静岡県,富士山とその周辺,日本二百名山
398,山岳,毛無山,けなしやま,,,,1964,35.41583333,138.5438889,山梨県 静岡県,富士山とその周辺,日本二百名山
399,山岳,天子ヶ岳,てんしがたけ,,,,1330,35.32916667,138.5366667,静岡県,富士山とその周辺,
400,山岳,箱根山,はこねやま,神山,かみやま,,1438,35.23333333,139.0208333,神奈川県,箱根山・伊豆半島,
401,山岳,金時山,きんときざん,,,,1212,35.28972222,139.005,静岡県 神奈川県,箱根山・伊豆半島,
402,山岳,玄岳,くろたけ,,,,798,35.08166667,139.0280556,静岡県,箱根山・伊豆半島,
403,山岳,大室山,おおむろやま,,,,580,34.90305556,139.0947222,静岡県,箱根山・伊豆半島,
404,山岳,天城山,あまぎさん,万三郎岳,ばんざぶろうだけ,,1406,34.86277778,139.0016667,静岡県,箱根山・伊豆半島,日本百名山
405,山岳,達磨山,だるまやま,,,,982,34.955,138.8391667,静岡県,箱根山・伊豆半島,
406,山岳,長九郎山,ちょうくろうやま,,,,996,34.78833333,138.8680556,静岡県,箱根山・伊豆半島,
407,島,三原山,みはらやま,,,,758,34.72444444,139.3944444,東京都,伊豆諸島（大島）,
408,島,宮塚山,みやつかやま,,,,508,34.52027778,139.2791667,東京都,伊豆諸島（利島）,
409,島,天上山,てんじょうさん,,,,572,34.21944444,139.1530556,東京都,伊豆諸島（神津島）,
410,島,雄山,おやま,,,,775,34.09361111,139.5261111,東京都,伊豆諸島（三宅島）,
411,島,御山,おやま,,,,851,33.87444444,139.6019444,東京都,伊豆諸島（御蔵島）,
412,島,西山,にしやま,,,,854,33.13694444,139.7661111,東京都,伊豆諸島（八丈島）,
413,島,硫黄山,いおうやま,,,,394,30.48388889,140.3030556,東京都,伊豆諸島（鳥島）,
414,島,中央山,ちゅうおうざん,,,,320,27.07333333,142.2186111,東京都,小笠原諸島（父島）,
415,島,乳房山,ちぶさやま,,,,463,26.65944444,142.1613889,東京都,小笠原諸島（母島）,
416,島,榊ヶ峰,さかきがみね,,,,792,25.42805556,141.2808333,東京都,小笠原諸島（北硫黄島）,
417,島,摺鉢山,すりばちやま,,,,170,24.75055556,141.2891667,東京都,小笠原諸島（硫黄島）,
418,島,南硫黄島,みなみいおうじま,,,,916,24.23388889,141.4633333,東京都,小笠原諸島（南硫黄島）,
419,島,金北山,きんぽくさん,,,,1172,38.10388889,138.3497222,新潟県,佐渡,
420,島,大地山,おおじやま,,,,646,37.95861111,138.4797222,新潟県,佐渡,
421,山岳,弥彦山,やひこやま,,,,634,37.70472222,138.8088889,新潟県,東頸城丘陵,
422,山岳,米山,よねやま,,,,993,37.28944444,138.4838889,新潟県,東頸城丘陵,
423,山岳,黒姫山,くろひめさん,,,,891,37.22611111,138.5922222,新潟県,東頸城丘陵,
424,山岳,菱ヶ岳,ひしがたけ,,,,1129,37.03222222,138.4933333,新潟県,東頸城丘陵,
425,山岳,斑尾山,まだらおやま,,,,1382,36.8375,138.2744444,長野県,東頸城丘陵,
426,山岳,鉾ヶ岳,ほこがたけ,,,,1316,37.02861111,138.0263889,新潟県,妙高山とその周辺,
427,山岳,駒ヶ岳,こまがたけ,,,,1498,36.94277778,137.9483333,新潟県,妙高山とその周辺,
428,山岳,鋸岳,のこぎりだけ,,,,1631,36.93194444,137.9688889,新潟県,海谷山地,
429,山岳,焼山,やけやま,,,妙高,2400,36.92083333,138.0358333,新潟県,妙高山とその周辺,
430,山岳,雨飾山,あまかざりやま,,,妙高,1963,36.90194444,137.9625,新潟県 長野県,妙高山とその周辺,日本百名山
431,山岳,火打山,ひうちやま,,,妙高,2462,36.92277778,138.0680556,新潟県,妙高山とその周辺,日本百名山
432,山岳,妙高山,みょうこうさん,,,妙高,2454,36.89138889,138.1133333,新潟県,妙高山とその周辺,日本百名山
433,山岳,黒姫山,くろひめやま,,,,2053,36.81333333,138.1272222,長野県,妙高山とその周辺,日本二百名山
434,山岳,高妻山,たかつまやま,,,,2353,36.8,138.0519444,新潟県 長野県,妙高山とその周辺,日本百名山
435,山岳,戸隠山,とがくしやま,,,,1904,36.77027778,138.055,長野県,妙高山とその周辺,日本二百名山
436,山岳,飯縄山,いいづなやま,,,,1917,36.73944444,138.1336111,長野県,妙高山とその周辺,日本二百名山
437,山岳,虫倉山,むしくらやま,,,,1378,36.64972222,138.0191667,長野県,妙高山とその周辺,
438,山岳,聖山,ひじりやま,,,,1447,36.48416667,138.0213889,長野県,筑摩山地,
439,山岳,冠着山,かむりきやま,姨捨山,おばすてやま,,1252,36.46888889,138.1066667,長野県,筑摩山地,
440,山岳,美ヶ原,うつくしがはら,王ヶ頭,おうがとう,,2034,36.22583333,138.1075,長野県,筑摩山地,日本百名山
441,山岳,鉢伏山,はちぶせやま,,,,1929,36.16305556,138.0591667,長野県,筑摩山地,
442,山岳,霧ヶ峰,きりがみね,車山,くるまやま,,1925,36.10305556,138.1966667,長野県,霧ヶ峰・八ヶ岳,日本百名山
443,山岳,蓼科山,たてしなやま,,,八ヶ岳,2531,36.10361111,138.295,長野県,霧ヶ峰・八ヶ岳,日本百名山
444,山岳,横岳,よこだけ,,,八ヶ岳,2480,36.0875,138.32,長野県,霧ヶ峰・八ヶ岳,
445,山岳,縞枯山,しまがれやま,,,八ヶ岳,2403,36.07555556,138.3311111,長野県,霧ヶ峰・八ヶ岳,
446,山岳,天狗岳,てんぐだけ,,,八ヶ岳,2646,36.01916667,138.3555556,長野県,霧ヶ峰・八ヶ岳,日本二百名山
448,山岳,硫黄岳,いおうだけ,,,八ヶ岳,2760,35.99861111,138.37,長野県,霧ヶ峰・八ヶ岳,
449,山岳,横岳,よこだけ,,,八ヶ岳,2829,35.98472222,138.3736111,長野県,霧ヶ峰・八ヶ岳,
450,山岳,赤岳,あかだけ,,,八ヶ岳,2899,35.97083333,138.37,長野県 山梨県,霧ヶ峰・八ヶ岳,日本百名山
451,山岳,阿弥陀岳,あみだだけ,,,八ヶ岳,2805,35.97222222,138.3588889,長野県,霧ヶ峰・八ヶ岳,
452,山岳,権現岳,ごんげんだけ,,,八ヶ岳,2715,35.94972222,138.3597222,山梨県,霧ヶ峰・八ヶ岳,
455,山岳,編笠山,あみがさやま,,,八ヶ岳,2524,35.94166667,138.345,山梨県 長野県,霧ヶ峰・八ヶ岳,
456,山岳,黒姫山,くろひめやま,,,,1221,36.97666667,137.79,新潟県,飛騨山脈北部,
457,山岳,明星山,みょうじょうさん,,,,1188,36.94083333,137.8219444,新潟県,飛騨山脈北部,
458,山岳,犬ヶ岳,いぬがだけ,,,,1592,36.90694444,137.7155556,新潟県 富山県,飛騨山脈北部,
459,山岳,朝日岳,あさひだけ,,,北アルプス,2418,36.82666667,137.73,新潟県 富山県,後立山連峰,
460,山岳,雪倉岳,ゆきくらだけ,,,北アルプス,2611,36.79472222,137.7541667,新潟県 富山県,後立山連峰,日本二百名山
465,山岳,白馬岳,しろうまだけ,,,北アルプス,2932,36.75861111,137.7586111,富山県 長野県,後立山連峰,日本百名山
470,山岳,唐松岳,からまつだけ,,,北アルプス,2696,36.68722222,137.7547222,富山県 長野県,後立山連峰,
471,山岳,五龍岳,ごりゅうだけ,,,北アルプス,2814,36.65833333,137.7527778,富山県,後立山連峰,日本百名山
472,山岳,鹿島槍ヶ岳,かしまやりがたけ,,,北アルプス,2889,36.62444444,137.7469444,富山県 長野県,後立山連峰,日本百名山
473,山岳,爺ヶ岳,じいがたけ,,,北アルプス,2670,36.58833333,137.7508333,富山県 長野県,後立山連峰,
475,山岳,鳴沢岳,なるさわだけ,,,北アルプス,2641,36.56861111,137.6955556,富山県 長野県,後立山連峰,
478,山岳,針ノ木岳,はりのきだけ,,,北アルプス,2821,36.53805556,137.6844444,富山県 長野県,後立山連峰,日本二百名山
479,山岳,蓮華岳,れんげだけ,,,北アルプス,2799,36.53583333,137.7105556,富山県 長野県,後立山連峰,
481,山岳,不動岳,ふどうだけ,,,北アルプス,2601,36.49527778,137.6672222,富山県 長野県,後立山連峰,
483,山岳,烏帽子岳,えぼしだけ,,,北アルプス,2628,36.47944444,137.6508333,富山県 長野県,後立山連峰,日本二百名山
484,山岳,三ッ岳,みつだけ,,,北アルプス,2845,36.45472222,137.6494444,富山県 長野県,黒部源頭,
485,山岳,野口五郎岳,のぐちごろうだけ,,,北アルプス,2924,36.43277778,137.6377778,富山県 長野県,黒部源頭,
487,山岳,赤牛岳,あかうしだけ,,,北アルプス,2864,36.46166667,137.6033333,富山県,黒部源頭,日本二百名山
488,山岳,水晶岳,すいしょうだけ,黒岳,くろだけ,北アルプス,2986,36.42638889,137.6027778,富山県,黒部源頭,日本百名山
490,山岳,鷲羽岳,わしばだけ,,,北アルプス,2924,36.40305556,137.6052778,富山県 長野県,黒部源頭,日本百名山
491,山岳,三俣蓮華岳,みつまたれんげだけ,,,北アルプス,2841,36.39,137.5877778,富山県 岐阜県 長野県,黒部源頭,
492,山岳,僧ヶ岳,そうがだけ,,,,1855,36.76166667,137.5636111,富山県,立山連峰,
493,山岳,毛勝山,けかつやま,,,,2415,36.70111111,137.5908333,富山県,立山連峰,日本二百名山
496,山岳,剱岳,つるぎだけ,,,北アルプス,2999,36.62333333,137.6169444,富山県,立山連峰,日本百名山
499,山岳,奥大日岳,おくだいにちだけ,,,北アルプス,2611,36.59833333,137.5808333,富山県,立山連峰,日本二百名山
500,山岳,大日岳,だいにちだけ,,,北アルプス,2501,36.59944444,137.55,富山県,立山連峰,
502,山岳,立山,たてやま,大汝山,おおなんじやま,北アルプス,3015,36.57583333,137.6197222,富山県,立山連峰,日本百名山
504,山岳,龍王岳,りゅうおうだけ,,,北アルプス,2872,36.56472222,137.6072222,富山県,立山連峰,
506,山岳,鷲岳,わしだけ,,,北アルプス,2617,36.54194444,137.5872222,富山県,立山連峰,
508,山岳,越中沢岳,えっちゅうざわだけ,,,北アルプス,2592,36.515,137.5830556,富山県,立山連峰,
509,山岳,鍬崎山,くわさきやま,,,,2090,36.54,137.4780556,富山県,飛騨山脈北部,
510,山岳,薬師岳,やくしだけ,,,北アルプス,2926,36.46888889,137.5447222,富山県,立山連峰,日本百名山
512,山岳,黒部五郎岳,くろべごろうだけ,中ノ俣岳,なかのまただけ,北アルプス,2840,36.3925,137.54,富山県 岐阜県,立山連峰,日本百名山
513,山岳,双六岳,すごろくだけ,,,北アルプス,2860,36.37194444,137.5872222,長野県 岐阜県,笠ヶ岳山塊,
517,山岳,笠ヶ岳,かさがたけ,,,北アルプス,2898,36.31555556,137.5502778,岐阜県,笠ヶ岳山塊,日本百名山
518,山岳,錫杖岳,しゃくじょうだけ,,,北アルプス,2168,36.28194444,137.5472222,岐阜県,笠ヶ岳山塊,
521,山岳,餓鬼岳,がきだけ,,,北アルプス,2647,36.44722222,137.7361111,長野県,常念山脈,日本二百名山
522,山岳,燕岳,つばくろだけ,,,北アルプス,2763,36.40694444,137.7127778,長野県,常念山脈,日本二百名山
523,山岳,有明山,ありあけやま,,,,2268,36.39111111,137.7705556,長野県,飛騨山脈北部,日本二百名山
524,山岳,大天井岳,だいてんじょうだけ,,,北アルプス,2922,36.365,137.7011111,長野県,常念山脈,日本二百名山
527,山岳,常念岳,じょうねんだけ,,,北アルプス,2857,36.32555556,137.7275,長野県,常念山脈,日本百名山
528,山岳,蝶ヶ岳,ちょうがたけ,,,北アルプス,2677,36.2875,137.7261111,長野県,常念山脈,
533,山岳,槍ヶ岳,やりがたけ,,,北アルプス,3180,36.34194444,137.6475,長野県,穂高連峰,日本百名山
535,山岳,中岳,なかだけ,,,北アルプス,3084,36.32972222,137.6466667,長野県 岐阜県,穂高連峰,
537,山岳,北穂高岳,きたほたかだけ,,,北アルプス,3106,36.3025,137.6519444,長野県 岐阜県,穂高連峰,
539,山岳,奥穂高岳,おくほたかだけ,,,北アルプス,3190,36.28916667,137.6480556,長野県 岐阜県,穂高連峰,日本百名山
540,山岳,前穂高岳,まえほたかだけ,,,北アルプス,3090,36.28194444,137.6605556,長野県,穂高連峰,
541,山岳,西穂高岳,にしほたかだけ,,,北アルプス,2909,36.27888889,137.6291667,長野県 岐阜県,穂高連峰,
542,山岳,焼岳,やけだけ,,,北アルプス,2455,36.22694444,137.5869444,長野県 岐阜県,穂高連峰,日本百名山
543,山岳,霞沢岳,かすみざわだけ,,,,2646,36.22111111,137.6405556,長野県,飛騨山脈南部,日本二百名山
544,山岳,十石山,じゅっこくやま,,,,2525,36.16361111,137.5905556,長野県 岐阜県,飛騨山脈南部,
545,山岳,輝山,てらしやま,,,,2063,36.19416667,137.5222222,岐阜県,飛騨山脈南部,
546,山岳,乗鞍岳,のりくらだけ,,,,3026,36.10638889,137.5536111,岐阜県 長野県,飛騨山脈南部,日本百名山
547,山岳,鎌ヶ峰,かまがみね,,,,2121,36.02666667,137.5991667,長野県 岐阜県,飛騨山脈南部,
548,山岳,鉢盛山,はちもりやま,,,,2447,36.08666667,137.7547222,長野県,飛騨山脈南部,
549,山岳,御嶽山,おんたけさん,,,,3067,35.89277778,137.4802778,長野県,御嶽山とその周辺,日本百名山
550,山岳,小秀山,こひでやま,,,,1982,35.78555556,137.3969444,長野県 岐阜県,御嶽山とその周辺,日本二百名山
551,山岳,奥三界岳,おくさんがいだけ,,,,1811,35.68166667,137.5072222,岐阜県 長野県,御嶽山とその周辺,
552,山岳,尾城山,おしろやま,,,,1133,35.69583333,137.3438889,岐阜県,御嶽山とその周辺,
553,山岳,二ッ森山,ふたつもりやま,,,,1223,35.57194444,137.4002778,岐阜県,御嶽山とその周辺,
554,山岳,経ヶ岳,きょうがたけ,,,,2296,35.91277778,137.8625,長野県,木曽山脈,日本二百名山
556,山岳,将棊頭山,しょうぎがしらやま,,,中央アルプス,2730,35.80333333,137.8269444,長野県,木曽山脈,
558,山岳,木曽駒ヶ岳,きそこまがたけ,,,中央アルプス,2956,35.78944444,137.8044444,長野県,木曽山脈,日本百名山
563,山岳,熊沢岳,くまざわだけ,,,中央アルプス,2778,35.73916667,137.8033333,長野県,木曽山脈,
565,山岳,空木岳,うつぎだけ,,,中央アルプス,2864,35.71888889,137.8172222,長野県,木曽山脈,日本百名山
566,山岳,南駒ヶ岳,みなみこまがたけ,,,中央アルプス,2841,35.70138889,137.8108333,長野県,木曽山脈,日本二百名山
569,山岳,越百山,こすもやま,,,中央アルプス,2614,35.67944444,137.8033333,長野県,木曽山脈,
570,山岳,安平路山,あんぺいじやま,,,中央アルプス,2363,35.63055556,137.7744444,長野県,木曽山脈,日本二百名山
572,山岳,南木曽岳,なぎそだけ,,,,1679,35.5925,137.6441667,長野県,木曽山脈,
573,山岳,風越山,かざこしやま,権現山,ごんげんやま,,1535,35.54944444,137.7838889,長野県,木曽山脈,
574,山岳,恵那山,えなさん,,,,2191,35.44361111,137.5972222,長野県 岐阜県,木曽山脈,日本百名山
575,山岳,守屋山,もりやさん,,,,1651,35.9675,138.0933333,長野県,赤石山脈北部,
576,山岳,入笠山,にゅうがさやま,,,,1955,35.89638889,138.1716667,長野県,赤石山脈北部,
577,山岳,鋸岳,のこぎりだけ,,,南アルプス,2685,35.77888889,138.21,山梨県 長野県,赤石山脈北部,日本二百名山
578,山岳,甲斐駒ヶ岳,かいこまがたけ,,,南アルプス,2967,35.75805556,138.2366667,山梨県 長野県,赤石山脈北部,日本百名山
584,山岳,地蔵ヶ岳,じぞうがたけ,,,南アルプス,2764,35.71222222,138.2986111,山梨県,鳳凰山系,
585,山岳,鳳凰山,ほうおうざん,観音ヶ岳,かんのんがだけ,南アルプス,2841,35.70166667,138.3047222,山梨県,鳳凰山系,日本百名山
586,山岳,薬師ヶ岳,やくしがだけ,,,南アルプス,2780,35.69611111,138.3116667,山梨県,鳳凰山系,
588,山岳,櫛形山,くしがたやま,,,,2052,35.58666667,138.3691667,山梨県,赤石山脈北部,日本二百名山
589,山岳,仙丈ヶ岳,せんじょうがたけ,,,南アルプス,3033,35.72,138.1836111,山梨県 長野県,赤石山脈北部,日本百名山
590,山岳,伊那荒倉岳,いなあらくらだけ,,,南アルプス,2519,35.68916667,138.1941667,山梨県 長野県,赤石山脈北部,
592,山岳,北岳,きただけ,,,南アルプス,3193,35.67444444,138.2388889,山梨県,白根山系,日本百名山
593,山岳,間ノ岳,あいのだけ,,,南アルプス,3190,35.64611111,138.2283333,山梨県 静岡県,白根山系,日本百名山
595,山岳,農鳥岳,のうとりだけ,,,南アルプス,3026,35.62111111,138.2369444,山梨県 静岡県,白根山系,日本二百名山
597,山岳,広河内岳,ひろごうちだけ,,,南アルプス,2895,35.60611111,138.2358333,山梨県 静岡県,赤石山脈北部,
600,山岳,黒檜山,くろべいやま,,,,2541,35.64444444,138.1861111,長野県,赤石山脈北部,
602,山岳,新蛇抜山,しんじゃぬけやま,,,南アルプス,2667,35.60722222,138.2052778,長野県 静岡県,赤石山脈北部,
603,山岳,北荒川岳,きたあらかわだけ,,,南アルプス,2698,35.59472222,138.1944444,長野県,赤石山脈北部,
604,山岳,塩見岳,しおみだけ,,,南アルプス,3047,35.57388889,138.1830556,長野県 静岡県,赤石山脈北部,日本百名山
605,山岳,蝙蝠岳,こうもりだけ,,,南アルプス,2865,35.55694444,138.2072222,静岡県,赤石山脈北部,
608,山岳,戸倉山,とくらやま,,,,1681,35.745,138.0519444,長野県,赤石山脈北部,
610,山岳,小河内岳,こごうちだけ,,,南アルプス,2802,35.53777778,138.1530556,長野県 静岡県,赤石山脈南部,
614,山岳,悪沢岳,わるさわだけ,東岳,ひがしだけ,南アルプス,3141,35.50083333,138.1825,静岡県,赤石山脈南部,日本百名山
615,山岳,荒川岳,あらかわだけ,中岳,なかだけ,南アルプス,3084,35.49666667,138.1669444,静岡県,赤石山脈南部,
617,山岳,赤石岳,あかいしだけ,,,南アルプス,3121,35.46111111,138.1572222,長野県 静岡県,赤石山脈南部,日本百名山
618,山岳,奥茶臼山,おくちゃうすやま,,,,2474,35.485,138.0691667,長野県,赤石山脈南部,
619,山岳,鬼面山,きめんざん,,,,1890,35.49194444,137.9902778,長野県,赤石山脈南部,
622,山岳,兎岳,うさぎだけ,,,南アルプス,2818,35.42861111,138.1211111,長野県 静岡県,赤石山脈南部,
623,山岳,聖岳,ひじりだけ,,,南アルプス,3013,35.42277778,138.1397222,長野県 静岡県,赤石山脈南部,日本百名山
624,山岳,上河内岳,かみこうちだけ,,,南アルプス,2803,35.38972222,138.1527778,静岡県,赤石山脈南部,日本二百名山
625,山岳,茶臼岳,ちゃうすだけ,,,南アルプス,2604,35.36916667,138.1405556,長野県 静岡県,赤石山脈南部,
627,山岳,光岳,てかりだけ,,,南アルプス,2592,35.33805556,138.0838889,静岡県 長野県,赤石山脈南部,日本百名山
628,山岳,池口岳,いけぐちだけ,,,南アルプス,2392,35.33027778,138.0383333,長野県 静岡県,赤石山脈南部,日本二百名山
629,山岳,白倉山,しらくらやま,,,,1851,35.30166667,137.9922222,長野県 静岡県,赤石山脈南部,
630,山岳,熊伏山,くまぶしやま,,,,1654,35.26333333,137.895,長野県,赤石山脈南部,
631,山岳,大無間山,だいむげんざん,,,南アルプス,2330,35.25611111,138.1616667,静岡県,赤石山脈南部,日本二百名山
632,山岳,不動岳,ふどうがたけ,,,,2172,35.23555556,138.0411111,静岡県,赤石山脈南部,
633,山岳,黒法師岳,くろぼうしがたけ,,,,2068,35.19611111,138.0294444,静岡県,赤石山脈南部,
634,山岳,蕎麦粒山,そばつぶやま,,,,1627,35.12611111,138.0352778,静岡県,赤石山脈南部,
635,山岳,高塚山,たかつかやま,,,,1621,35.11555556,138.0036111,静岡県,赤石山脈南部,
636,山岳,京丸山,きょうまるやま,,,,1470,35.09611111,137.9658333,静岡県,赤石山脈南部,
637,山岳,秋葉山,あきはさん,,,,885,34.98166667,137.8661111,静岡県,赤石山脈南部,
638,山岳,八高山,はっこうさん,,,,832,34.9075,138.0566667,静岡県,赤石山脈南部,
639,山岳,笊ヶ岳,ざるがたけ,,,,2629,35.42416667,138.2594444,山梨県 静岡県,赤石山脈南部,日本二百名山
640,山岳,布引山,ぬのびきやま,,,,2584,35.40861111,138.2583333,山梨県 静岡県,赤石山脈南部,
641,山岳,青薙山,あおなぎやま,,,,2406,35.36972222,138.2286111,静岡県,赤石山脈南部,
642,山岳,身延山,みのぶさん,,,,1153,35.3975,138.4163889,山梨県,身延山地,
643,山岳,七面山,しちめんざん,,,,1989,35.36944444,138.3488889,山梨県,身延山地,日本二百名山
644,山岳,山伏,やんぶし,,,,2013,35.30444444,138.2852778,山梨県 静岡県,身延山地,
645,山岳,十枚山,じゅうまいざん,,,,1726,35.25361111,138.3780556,静岡県 山梨県,身延山地,
646,山岳,篠井山,しのいさん,,,,1394,35.24777778,138.4263889,山梨県,身延山地,
647,山岳,高ドッキョウ,たかどっきょう,,,,1133,35.17861111,138.4380556,山梨県 静岡県,身延山地,
648,山岳,竜爪山,りゅうそうざん,,,,1051,35.08833333,138.4036111,静岡県,身延山地,
649,山岳,久能山,くのうざん,,,,216,34.96611111,138.4680556,静岡県,身延山地,
650,山岳,茶臼山,ちゃうすやま,,,,1416,35.2275,137.6555556,長野県 愛知県,美濃・三河高原,
651,山岳,鷹ノ巣山,たかのすやま,,,,1153,35.1525,137.495,愛知県,美濃・三河高原,
652,山岳,鳳来寺山,ほうらいじさん,,,,695,34.98416667,137.5827778,愛知県,美濃・三河高原,
653,山岳,本宮山,ほんぐうさん,,,,789,34.90972222,137.4205556,愛知県,美濃・三河高原,
654,山岳,猿投山,さなげやま,,,,629,35.20583333,137.1669444,愛知県,美濃・三河高原,
655,山岳,金華山,きんかざん,,,,329,35.43333333,136.7813889,岐阜県,美濃・三河高原,
656,山岳,宝立山,ほうりゅうざん,,,,471,37.42861111,137.1625,石川県,能登半島,
657,山岳,鉢伏山,はちぶせやま,,,,544,37.37777778,136.9708333,石川県,能登半島,
658,山岳,石動山,せきどうさん,,,,564,36.96555556,136.9708333,石川県,宝達丘陵,
659,山岳,宝達山,ほうだつさん,,,,637,36.78194444,136.8130556,石川県,宝達丘陵,
660,山岳,二上山,ふたがみやま,,,,274,36.79,137.0152778,富山県,宝達丘陵,
661,山岳,牛岳,うしだけ,,,,987,36.54111111,137.0316667,富山県,飛騨高地,
662,山岳,白木峰,しらきみね,,,,1596,36.41555556,137.1122222,富山県 岐阜県,飛騨高地,
663,山岳,金剛堂山,こんごうどうざん,,,,1650,36.37888889,137.0488889,富山県,飛騨高地,日本二百名山
664,山岳,人形山,にんぎょうやま,,,,1726,36.34888889,136.9397222,岐阜県 富山県,飛騨高地,
665,山岳,三ヶ辻山,みつがつじやま,,,,1764,36.33805556,136.95,岐阜県,飛騨高地,
666,山岳,猿ヶ馬場山,さるがばばやま,,,,1875,36.22583333,136.9427778,岐阜県,飛騨高地,
667,山岳,御前岳,ごぜんだけ,,,,1816,36.19805556,136.9602778,岐阜県,飛騨高地,
668,山岳,大雨見山,おおあまみやま,,,,1336,36.25333333,137.2986111,岐阜県,飛騨高地,
669,山岳,位山,くらいやま,,,,1529,36.03833333,137.1966667,岐阜県,飛騨高地,日本二百名山
670,山岳,川上岳,かおれだけ,,,,1625,36.00833333,137.1494444,岐阜県,飛騨高地,
671,山岳,鷲ヶ岳,わしがたけ,,,,1671,35.94027778,136.9713889,岐阜県,飛騨高地,
672,山岳,八乙女山,やおとめやま,,,,756,36.54055556,136.9830556,富山県,白山山地,
673,山岳,高清水山,たかしょうずやま,,,,1145,36.47722222,136.9427778,富山県,白山山地,
674,山岳,医王山,いおうぜん,,,,939,36.51277778,136.7961111,富山県 石川県,白山山地,
675,山岳,口三方岳,くちさんぼうだけ,,,,1269,36.37333333,136.7155556,石川県,白山山地,
676,山岳,高三郎山,たかさぶろうやま,,,,1445,36.37111111,136.7736111,石川県,白山山地,
677,山岳,大門山,だいもんざん,,,,1572,36.36527778,136.8036111,富山県 石川県,白山山地,
678,山岳,大笠山,おおがさやま,,,,1822,36.32055556,136.7897222,富山県 石川県,白山山地,
679,山岳,笈ヶ岳,おいずるがだけ,,,,1841,36.29861111,136.7922222,富山県 石川県 岐阜県,白山山地,日本二百名山
680,山岳,三方岩岳,さんぽういわだけ,,,,1736,36.25805556,136.8444444,石川県 岐阜県,白山山地,
681,山岳,三方崩山,さんぽうくずれやま,,,,2059,36.17888889,136.8602778,岐阜県,白山山地,
682,山岳,七倉山,ななくらやま,,,白山,2557,36.17111111,136.7586111,石川県,白山山地,
683,山岳,白山,はくさん,,,白山,2702,36.155,136.7713889,石川県 岐阜県,白山山地,日本百名山
685,山岳,別山,べっさん,,,白山,2399,36.10555556,136.7658333,石川県 岐阜県,白山山地,
686,山岳,願教寺山,がんきょうじやま,,,,1691,36.05694444,136.7397222,福井県 岐阜県,白山山地,
687,山岳,野伏ヶ岳,のぶせがだけ,,,,1674,36.01277778,136.7325,岐阜県 福井県,白山山地,
688,山岳,大日ヶ岳,だいにちがたけ,,,,1709,36.00138889,136.8377778,岐阜県,白山山地,日本二百名山
689,山岳,赤兎山,あかうさぎやま,,,,1629,36.0675,136.6619444,福井県 石川県,白山山地,
690,山岳,経ヶ岳,きょうがだけ,,,,1625,36.04638889,136.6219444,福井県,白山山地,
691,山岳,鷲走ヶ岳,わっそうがたけ,,,,1097,36.26583333,136.6155556,石川県,白山山地,
692,山岳,大日山,だいにちざん,,,,1368,36.16194444,136.4930556,石川県,白山山地,
693,山岳,富士写ヶ岳,ふじしゃがだけ,,,,942,36.18861111,136.3638889,石川県,白山山地,
694,山岳,浄法寺山,じょうほうじやま,,,,1053,36.125,136.3927778,福井県,白山山地,
695,山岳,国見岳,くにみだけ,,,,656,36.07916667,136.0838889,福井県,越美・伊吹山地,
696,山岳,日野山,ひのさん,,,,794,35.85916667,136.2075,福井県,越美・伊吹山地,
697,山岳,部子山,へこさん,,,,1464,35.88611111,136.4391667,福井県,越美・伊吹山地,
698,山岳,荒島岳,あらしまだけ,,,,1523,35.93416667,136.6013889,福井県,越美・伊吹山地,日本百名山
699,山岳,平家岳,へいけがだけ,,,,1442,35.81,136.7188889,福井県,越美・伊吹山地,
700,山岳,高賀山,こうがさん,,,,1224,35.67194444,136.8591667,岐阜県,越美・伊吹山地,
701,山岳,屏風山,びょうぶざん,,,,1354,35.79694444,136.6266667,福井県 岐阜県,越美・伊吹山地,
702,山岳,姥ヶ岳,うばがたけ,,,,1454,35.80944444,136.5058333,福井県,越美・伊吹山地,
703,山岳,能郷白山,のうごうはくさん,権現山,ごんげんさん,,1617,35.7625,136.5141667,岐阜県,越美・伊吹山地,日本二百名山
704,山岳,冠山,かんむりやま,,,,1257,35.77972222,136.4094444,福井県 岐阜県,越美・伊吹山地,
705,山岳,三周ヶ岳,さんしゅうがたけ,,,,1292,35.68361111,136.3,岐阜県,越美・伊吹山地,
706,山岳,金糞岳,かなくそだけ,,,,1317,35.55,136.3372222,岐阜県 滋賀県,越美・伊吹山地,
707,山岳,伊吹山,いぶきやま,,,,1377,35.41777778,136.4063889,滋賀県,越美・伊吹山地,日本百名山
709,山岳,笙ヶ岳,しょうがだけ,,,,908,35.28361111,136.5111111,岐阜県,鈴鹿・布引山地,
710,山岳,養老山,ようろうさん,,,,859,35.26305556,136.5233333,岐阜県,鈴鹿・布引山地,
711,山岳,御池岳,おいけだけ,,,鈴鹿,1247,35.17861111,136.415,滋賀県,鈴鹿・布引山地,
712,山岳,竜ヶ岳,りゅうがだけ,,,鈴鹿,1099,35.11944444,136.4452778,滋賀県 三重県,鈴鹿・布引山地,
713,山岳,御在所山,ございしょやま,,,鈴鹿,1212,35.02055556,136.4177778,滋賀県 三重県,鈴鹿・布引山地,日本二百名山
715,山岳,高畑山,たかはたやま,,,,773,34.88972222,136.3208333,三重県 滋賀県,鈴鹿・布引山地,
716,山岳,霊山,れいさん,,,,766,34.81722222,136.2605556,三重県,鈴鹿・布引山地,
717,山岳,経が峰,きょうがみね,,,,819,34.76638889,136.3744444,三重県,鈴鹿・布引山地,
718,山岳,笠取山,かさとりやま,,,,842,34.73416667,136.2966667,三重県,鈴鹿・布引山地,
719,山岳,武奈ヶ岳,ぶながだけ,,,,1214,35.26472222,135.8969444,滋賀県,琵琶湖周辺,日本二百名山
720,山岳,皆子山,みなこやま,,,,971,35.20222222,135.8352778,京都府 滋賀県,琵琶湖周辺,
721,山岳,蓬莱山,ほうらいさん,,,,1174,35.20944444,135.8858333,滋賀県,琵琶湖周辺,
722,山岳,比叡山,ひえいざん,,,,848,35.06583333,135.8344444,滋賀県 京都府,琵琶湖周辺,
723,山岳,音羽山,おとわやま,,,,593,34.97694444,135.8530556,京都府,琵琶湖周辺,
724,山岳,三上山,みかみやま,,,,432,35.05055556,136.0377778,滋賀県,琵琶湖周辺,
725,山岳,鷲峰山,じゅうぶざん,,,,682,34.83055556,135.9083333,京都府,笠置山地,
726,山岳,笠置山,かさぎやま,,,,324,34.75194444,135.9505556,京都府,笠置山地,
727,山岳,若草山,わかくさやま,三笠山,みかさやま,,342,34.69111111,135.8544444,奈良県,笠置山地,
728,山岳,三輪山,みわやま,,,,467,34.535,135.8669444,奈良県,笠置山地,
729,山岳,耳成山,みみなしやま,,,,139,34.51472222,135.8052778,奈良県,奈良盆地,
730,山岳,天香久山,あまのかぐやま,,,,152,34.49583333,135.8183333,奈良県,奈良盆地,
731,山岳,畝傍山,うねびやま,,,,199,34.4925,135.7847222,奈良県,奈良盆地,
732,山岳,生駒山,いこまやま,,,,642,34.67833333,135.6788889,大阪府 奈良県,生駒・金剛・和泉山地,
733,山岳,信貴山,しぎさん,,,,437,34.61277778,135.6683333,奈良県,生駒・金剛・和泉山地,
734,山岳,二上山,にじょうさん,雄岳,おだけ,,517,34.52583333,135.6775,奈良県,生駒・金剛・和泉山地,
735,山岳,葛城山,かつらぎさん,,,,959,34.45611111,135.6822222,奈良県 大阪府,生駒・金剛・和泉山地,
736,山岳,金剛山,こんごうざん,,,,1125,34.41944444,135.6730556,奈良県,生駒・金剛・和泉山地,日本二百名山
737,山岳,岩湧山,いわわきさん,,,,897,34.37416667,135.5511111,大阪府,生駒・金剛・和泉山地,
738,山岳,葛城山,かつらぎさん,,,,858,34.34805556,135.4344444,大阪府 和歌山県,生駒・金剛・和泉山地,
739,山岳,俎石山,そせきざん,,,,420,34.30833333,135.2077778,和歌山県 大阪府,生駒・金剛・和泉山地,
740,山岳,堀坂山,ほっさかさん,,,,757,34.54666667,136.4327778,三重県,高見山地,
741,山岳,尼ケ岳,あまがだけ,,,,957,34.5575,136.2197222,三重県,高見山地,
742,山岳,倶留尊山,くろそやま,,,,1037,34.53083333,136.1702778,三重県 奈良県,高見山地,
743,山岳,局ヶ岳,つぼねがだけ,,,,1029,34.46055556,136.3269444,三重県,高見山地,
744,山岳,三峰山,みうねやま,,,,1235,34.44861111,136.2063889,三重県 奈良県,高見山地,
745,山岳,高見山,たかみやま,,,,1248,34.42861111,136.0883333,三重県 奈良県,高見山地,
746,山岳,竜門岳,りゅうもんがだけ,,,,904,34.44055556,135.8977778,奈良県,高見山地,
747,山岳,朝熊ヶ岳,あさまがたけ,,,,555,34.46111111,136.7813889,三重県,紀伊山地東部,
748,山岳,七洞岳,ななほらがたけ,,,,778,34.37305556,136.5158333,三重県,紀伊山地東部,
749,山岳,迷岳,まよいだけ,,,,1309,34.35,136.2075,三重県,大台原山とその周辺,
750,山岳,国見山,くにみやま,,,,1419,34.37583333,136.0866667,三重県 奈良県,大台原山とその周辺,
751,山岳,池木屋山,いけごややま,,,,1396,34.31611111,136.1294444,三重県 奈良県,大台原山とその周辺,
752,山岳,白鬚岳,しらひげだけ,,,,1378,34.29305556,136.0469444,奈良県,大台原山とその周辺,
753,山岳,大台ヶ原山,おおだいがはらざん,日出ヶ岳,ひのでがたけ,,1695,34.18527778,136.1091667,奈良県 三重県,大台原山とその周辺,日本百名山
754,山岳,山上ヶ岳,さんじょうがたけ,,,大峰,1719,34.2525,135.9411111,奈良県,大峰山脈,
757,山岳,八経ヶ岳,はっきょうがだけ,,,大峰,1915,34.17361111,135.9075,奈良県,大峰山脈,日本百名山
759,山岳,釈迦ヶ岳,しゃかがだけ,,,大峰,1800,34.11444444,135.9030556,奈良県,大峰山脈,日本二百名山
760,山岳,涅槃岳,ねはんだけ,,,大峰,1376,34.05833333,135.8969444,奈良県,大峰山脈,
761,山岳,笠捨山,かさすてやま,,,大峰,1353,33.98277778,135.8983333,奈良県,大峰山脈,
763,山岳,高峰山,たかみねさん,,,,1045,34.03194444,136.1472222,三重県,紀伊山地東部,
764,山岳,子ノ泊山,ねのとまりやま,,,,907,33.79444444,135.9305556,三重県,紀伊山地東部,
765,山岳,龍門山,りゅうもんざん,,,,756,34.23805556,135.4113889,和歌山県,紀伊山地西部,
766,山岳,生石ヶ峰,おいしがみね,,,,870,34.105,135.3341667,和歌山県,紀伊山地西部,
767,山岳,白馬山,しらまやま,,,,957,34.01583333,135.3722222,和歌山県,紀伊山地西部,
768,山岳,伯母子岳,おばこだけ,,,,1344,34.0775,135.6508333,奈良県,紀伊山地西部,日本二百名山
769,山岳,護摩壇山,ごまだんざん,,,,1372,34.0575,135.5669444,奈良県 和歌山県,紀伊山地西部,
770,山岳,牛廻山,うしまわしやま,,,,1207,33.94888889,135.6313889,奈良県 和歌山県,紀伊山地西部,
771,山岳,冷水山,ひやみずやま,,,,1262,33.89916667,135.6527778,奈良県,紀伊山地西部,
772,山岳,大塔山,おおとうざん,,,,1122,33.72694444,135.7138889,和歌山県,紀伊山地西部,
773,山岳,法師山,ほうしやま,,,,1121,33.72583333,135.6652778,和歌山県,紀伊山地西部,
774,山岳,那智山,なちさん,,,,910,33.69611111,135.9008333,和歌山県,紀伊山地西部,
775,山岳,善司ノ森山,ぜんじのもりやま,,,,591,33.59361111,135.5469444,和歌山県,紀伊山地西部,
776,山岳,野坂岳,のさかだけ,,,,913,35.58972222,136.0247222,福井県,丹波高地,
777,山岳,雲谷山,くもだにやま,,,,786,35.55777778,135.945,福井県,丹波高地,
778,山岳,久須夜ヶ岳,くすやがだけ,,,,619,35.5575,135.7336111,福井県,丹波高地,
779,山岳,百里ヶ岳,ひゃくりがだけ,,,,931,35.39166667,135.81,福井県 滋賀県,丹波高地,
780,山岳,飯盛山,はんせいざん,,,,584,35.45194444,135.66,福井県,丹波高地,
781,山岳,青葉山,あおばやま,,,,693,35.505,135.4838889,福井県,丹波高地,
782,山岳,頭巾山,とうきんざん,,,,871,35.3775,135.5344444,福井県 京都府,丹波高地,
783,山岳,長老ヶ岳,ちょうろうがだけ,,,,917,35.30333333,135.4738889,京都府,丹波高地,
784,山岳,桟敷ヶ岳,さじきがだけ,,,,896,35.15916667,135.7172222,京都府,丹波高地,
785,山岳,愛宕山,あたごやま,,,,924,35.06027778,135.6341667,京都府,丹波高地,
786,山岳,ポンポン山,ぽんぽんやま,,,,679,34.93527778,135.6238889,京都府 大阪府,丹波高地,
787,山岳,妙見山,みょうけんさん,,,,660,34.92888889,135.4672222,大阪府 兵庫県,丹波高地,
788,山岳,歌垣山,うたがきやま,,,,553,34.97416667,135.4766667,大阪府,丹波高地,
789,山岳,剣尾山,けんびさん,,,,784,35.00361111,135.4038889,大阪府,丹波高地,
790,山岳,三嶽,みたけ,,,,793,35.12722222,135.245,兵庫県,丹波高地,
791,山岳,白髪岳,しらがだけ,,,,722,35.04611111,135.1347222,兵庫県,丹波高地,
792,山岳,太鼓山,たいこやま,,,,683,35.69527778,135.2041667,京都府,丹波高地,
793,山岳,磯砂山,いさなごさん,,,,661,35.54861111,135.0380556,京都府,丹波高地,
794,山岳,大江山,おおえやま,,,,832,35.45333333,135.1066667,京都府,丹波高地,
795,山岳,東床尾山,ひがしとこのおさん,,,,839,35.42194444,134.9158333,兵庫県,丹波高地,
796,山岳,来日岳,くるひだけ,,,,567,35.61194444,134.7855556,兵庫県,丹波高地,
797,山岳,六甲山,ろっこうさん,,,,931,34.77805556,135.2636111,兵庫県,六甲山地,
798,山岳,摩耶山,まやさん,,,,702,34.73305556,135.2041667,兵庫県,六甲山地,
799,島,妙見山,みょうけんやま,,,,522,34.49722222,134.9433333,兵庫県,淡路島,
800,島,諭鶴羽山,ゆづるはさん,,,,608,34.235,134.8141667,兵庫県,淡路島,
801,山岳,粟鹿山,あわがやま,,,,962,35.27277778,134.9155556,兵庫県,中国山地東部,
802,山岳,千ヶ峰,せんがみね,,,,1005,35.14472222,134.8838889,兵庫県,中国山地東部,
803,山岳,笠形山,かさがたやま,,,,939,35.06416667,134.8347222,兵庫県,中国山地東部,
804,山岳,久斗山,くとやま,,,,650,35.62111111,134.5627778,兵庫県,中国山地東部,
805,山岳,蘇武岳,そぶがたけ,,,,1074,35.47083333,134.6380556,兵庫県,中国山地東部,
806,山岳,妙見山,みょうけんやま,,,,1139,35.41055556,134.6438889,兵庫県,中国山地東部,
807,山岳,藤無山,ふじなしやま,,,,1139,35.26666667,134.6005556,兵庫県,中国山地東部,
808,山岳,段ヶ峰,だんがみね,,,,1103,35.19166667,134.7275,兵庫県,中国山地東部,
809,山岳,雪彦山,せっぴこさん,,,,915,35.07277778,134.6511111,兵庫県,中国山地東部,
810,山岳,扇ノ山,おうぎのせん,,,,1310,35.43972222,134.4408333,鳥取県,中国山地東部,
811,山岳,鉢伏山,はちぶせやま,,,,1222,35.39527778,134.5363889,兵庫県,中国山地東部,
812,山岳,氷ノ山,ひょうのせん,須賀ノ山,すがのせん,,1510,35.35388889,134.5138889,兵庫県 鳥取県,中国山地東部,日本二百名山
813,山岳,三室山,みむろやま,,,,1358,35.23666667,134.4627778,兵庫県 鳥取県,中国山地東部,
814,山岳,東山,とうせん,,,,1388,35.29222222,134.3830556,鳥取県,中国山地東部,
815,山岳,沖ノ山,おきのやま,,,,1318,35.24805556,134.3566667,鳥取県,中国山地東部,
816,山岳,後山,うしろやま,,,,1344,35.18694444,134.4111111,岡山県 兵庫県,中国山地東部,
817,山岳,那岐山,なぎさん,,,,1255,35.17166667,134.1802778,鳥取県 岡山県,中国山地東部,
818,山岳,書写山,しょしゃざん,,,,371,34.89277778,134.6563889,兵庫県,吉備高原東部,
819,山岳,白旗山,しらはたやま,,,,440,34.90833333,134.3808333,兵庫県,吉備高原東部,
820,山岳,八塔寺山,はっとうじさん,,,,538,34.92305556,134.2522222,岡山県,吉備高原東部,
821,山岳,金山,かなやま,,,,499,34.74472222,133.9408333,岡山県,吉備高原東部,
822,山岳,大平山,おおひらやま,,,,698,34.89888889,133.7069444,岡山県,吉備高原東部,
823,山岳,大満寺山,だいまんじさん,,,,608,36.25666667,133.3305556,島根県,隠岐,
824,山岳,焼火山,たくひやま,,,,452,36.07472222,133.0319444,島根県,隠岐,
825,山岳,朝日山,あさひやま,,,,344,35.50777778,132.9763889,島根県,島根半島,
826,山岳,鼻高山,はなたかせん,,,,536,35.4125,132.7527778,島根県,島根半島,
827,山岳,高鉢山,たかはちやま,,,,1203,35.36027778,134.0511111,鳥取県,中国山地中部,
828,山岳,花知ヶ仙,はなちがせん,,,,1247,35.25944444,133.975,岡山県,中国山地中部,
829,山岳,津黒山,つぐろせん,,,,1118,35.25194444,133.815,岡山県,中国山地中部,
830,山岳,蒜山,ひるぜん,,,,1202,35.325,133.6633333,鳥取県 岡山県,中国山地中部,日本二百名山
831,山岳,矢筈ヶ山,やはずがせん,,,,1358,35.38666667,133.5808333,鳥取県,中国山地中部,
832,山岳,大山,だいせん,,,,1729,35.37111111,133.5461111,鳥取県,中国山地中部,日本百名山
833,山岳,烏ヶ山,からすがせん,,,,1448,35.35583333,133.5702778,鳥取県,中国山地中部,
834,山岳,毛無山,けなしがせん,,,,1219,35.23555556,133.5147222,鳥取県 岡山県,中国山地中部,
835,山岳,宝仏山,ほうぶつざん,,,,1005,35.22972222,133.4702778,鳥取県,中国山地中部,
836,山岳,星山,ほしやま,,,,1030,35.14194444,133.6772222,岡山県,中国山地中部,
837,山岳,花見山,はなみやま,,,,1188,35.1525,133.4011111,鳥取県 岡山県,中国山地中部,
838,山岳,大倉山,おおくらやま,,,,1112,35.13361111,133.3552778,鳥取県,中国山地中部,
839,山岳,船通山,せんつうざん,,,,1142,35.15583333,133.1786111,島根県 鳥取県,中国山地中部,
840,山岳,道後山,どうごやま,,,,1271,35.06944444,133.2327778,広島県 鳥取県,中国山地中部,
841,山岳,比婆山,ひばやま,立烏帽子山,たてえぼしやま,,1299,35.05166667,133.0655556,広島県,中国山地中部,
843,山岳,猿政山,さるまさやま,,,,1268,35.08138889,132.9677778,島根県 広島県,中国山地中部,
844,山岳,大万木山,おおよろぎやま,,,,1218,35.0875,132.8544444,島根県 広島県,中国山地中部,
845,山岳,琴引山,ことびきさん,弥山,みせん,,1013,35.04805556,132.7825,島根県,中国山地中部,
846,山岳,三瓶山,さんべさん,,,,1126,35.14055556,132.6216667,島根県,中国山地中部,日本二百名山
847,山岳,大江高山,おおえたかやま,,,,808,35.06388889,132.4286111,島根県,中国山地中部,
848,山岳,星居山,ほしのこやま,,,,834,34.74805556,133.2216667,広島県,吉備高原西部,
849,山岳,岳山,だけやま,,,,741,34.64888889,133.1566667,広島県,吉備高原西部,
850,山岳,龍王山,りゅうおうさん,,,,665,34.45583333,133.0833333,広島県,吉備高原西部,
851,山岳,鷹ノ巣山,たかのすざん,,,,922,34.56611111,132.7461111,広島県,吉備高原西部,
852,山岳,白木山,しらきやま,,,,889,34.52138889,132.5755556,広島県,吉備高原西部,
853,山岳,呉娑々宇山,ごさそうざん,,,,682,34.42277778,132.5477778,広島県,吉備高原西部,
854,山岳,野呂山,のろさん,膳棚山,ぜんだなやま,,839,34.26222222,132.6661111,広島県,吉備高原西部,
855,山岳,冠山,かんざん,,,,863,34.9175,132.5019444,島根県,中国山地西部,
856,山岳,阿佐山,あさやま,,,,1218,34.78583333,132.3813889,島根県 広島県,中国山地西部,
857,山岳,天狗石山,てんぐいしやま,,,,1192,34.79222222,132.3427778,島根県 広島県,中国山地西部,
858,山岳,雲月山,うんげつやま,,,,911,34.80222222,132.2388889,島根県 広島県,中国山地西部,
859,山岳,大佐山,おおさやま,,,,1069,34.74777778,132.2013889,島根県 広島県,中国山地西部,
860,山岳,臥龍山,がりゅうざん,,,,1223,34.69,132.1966667,広島県,中国山地西部,
861,山岳,深入山,しんにゅうざん,,,,1153,34.65,132.2066667,広島県,中国山地西部,
862,山岳,恐羅漢山,おそらかんざん,,,,1346,34.59555556,132.1297222,島根県 広島県,中国山地西部,
863,山岳,十方山,じっぽうざん,,,,1328,34.56527778,132.1422222,広島県,中国山地西部,
864,山岳,大峯山,おおみねやま,,,,1050,34.41583333,132.2169444,広島県,中国山地西部,
865,山岳,冠山,かんむりやま,,,,1339,34.46861111,132.0761111,広島県,中国山地西部,
866,山岳,寂地山,じゃくちさん,,,,1337,34.46722222,132.0544444,山口県 島根県,中国山地西部,
867,山岳,安蔵寺山,あぞうじやま,,,,1263,34.47722222,131.9672222,島根県,中国山地西部,
868,山岳,小五郎山,こごろうさん,,,,1162,34.41694444,132.0086111,山口県,中国山地西部,
869,山岳,羅漢山,らかんざん,,,,1109,34.35555556,132.0672222,山口県,中国山地西部,
870,山岳,鈴ノ大谷山,すずのおおたにやま,,,,1036,34.37666667,131.8391667,島根県,中国山地西部,
871,山岳,平家ヶ岳,へいけがだけ,,,,1066,34.31833333,131.8997222,島根県 山口県,中国山地西部,
872,山岳,馬糞ヶ岳,ばふんがだけ,,,,985,34.25055556,131.8963889,山口県,中国山地西部,
873,山岳,莇ヶ岳,あざみがだけ,,,,1004,34.3325,131.7777778,山口県,中国山地西部,
874,山岳,青野山,あおのやま,,,,907,34.46222222,131.7980556,島根県,中国山地西部,
875,山岳,十種ヶ峰,とくさがみね,,,,989,34.43833333,131.6952778,山口県 島根県,中国山地西部,
876,山岳,高山,こうやま,,,,533,34.65222222,131.6133333,山口県,中国山地西部,
877,山岳,西鳳翩山,にしほうべんざん,,,,742,34.21083333,131.4094444,山口県,中国山地西部,
878,山岳,大平山,おおひらやま,,,,631,34.07333333,131.6302778,山口県,中国山地西部,
879,山岳,桂木山,かつらぎさん,,,,702,34.30527778,131.3027778,山口県,中国山地西部,
880,山岳,花尾山,はなおやま,,,,669,34.28388889,131.2211111,山口県,中国山地西部,
881,山岳,天井ヶ岳,てんじょうがだけ,,,,691,34.31111111,131.0427778,山口県,中国山地西部,
882,山岳,狗留孫山,くるそんざん,御岳,おだけ,,616,34.21472222,130.9763889,山口県,中国山地西部,
883,山岳,竜王山,りゅうおうざん,,,,614,34.06833333,130.9358333,山口県,中国山地西部,
884,島,嶮岨山,けんそざん,星ヶ城山,ほしがじょうやま,,816,34.51527778,134.3175,香川県,瀬戸内海（小豆島）,
885,山岳,熊ヶ峰,くまがみね,,,,438,34.43333333,133.3683333,広島県,福山南部,
886,島,鷲ヶ頭山,わしがとうざん,,,,436,34.23916667,133.0213889,愛媛県,瀬戸内海（大三島）,
887,島,弥山,みせん,,,,535,34.27944444,132.3194444,広島県,瀬戸内海（厳島）,
888,山岳,皇座山,おおざさん,,,,526,33.85305556,132.1422222,山口県,柳井市南方,
889,山岳,五剣山,ごけんざん,八栗山,やくりやま,,375,34.36111111,134.1413889,香川県,讃岐山地とその周辺,
890,山岳,大平山,おおひらやま,,,,479,34.32972222,133.9525,香川県,讃岐山地とその周辺,
891,山岳,飯野山,いいのやま,,,,422,34.27444444,133.8458333,香川県,讃岐山地とその周辺,
892,山岳,象頭山,ぞうずさん,大麻山,おおさやま,,616,34.19666667,133.7886111,香川県,讃岐山地とその周辺,
893,山岳,矢筈山,やはずやま,,,,789,34.19416667,134.1966667,香川県,讃岐山地とその周辺,
894,山岳,大滝山,おおたきやま,,,,946,34.12333333,134.1269444,香川県 徳島県,讃岐山地とその周辺,
895,山岳,竜王山,りゅうおうざん,,,,1060,34.11555556,134.0483333,徳島県 香川県,讃岐山地とその周辺,
896,山岳,大川山,だいせんざん,,,,1043,34.11527778,133.9397222,徳島県 香川県,讃岐山地とその周辺,
897,山岳,雲辺寺山,うんぺんじさん,,,,927,34.03527778,133.7230556,香川県 徳島県,讃岐山地とその周辺,
898,山岳,東三方ヶ森,ひがしさんぽうがもり,,,,1233,33.90277778,132.9597222,愛媛県,高縄山地,
899,山岳,高縄山,たかなわさん,,,,986,33.94583333,132.85,愛媛県,高縄山地,
900,山岳,眉山,びざん,,,,290,34.06111111,134.5163889,徳島県,四国山地東部,
901,山岳,中津峰山,なかつみねやま,,,,773,33.9625,134.5094444,徳島県,四国山地東部,
902,山岳,太竜寺山,たいりゅうじやま,,,,618,33.87416667,134.5197222,徳島県,四国山地東部,
903,山岳,高越山,こうつざん,,,,1133,34.01722222,134.1958333,徳島県,剣山地,
904,山岳,雲早山,くもそうやま,,,,1496,33.90583333,134.2947222,徳島県,剣山地,
905,山岳,八面山,やつらやま,,,,1312,33.92333333,134.0997222,徳島県,剣山地,
906,山岳,剣山,つるぎさん,,,,1955,33.85361111,134.0941667,徳島県,剣山地,日本百名山
908,山岳,塔丸,とうのまる,,,,1713,33.86694444,134.0391667,徳島県,剣山地,
909,山岳,矢筈山,やはずさん,,,,1849,33.925,133.975,徳島県,剣山地,
910,山岳,中津山,なかつざん,,,,1447,33.92472222,133.8441667,徳島県,剣山地,
911,山岳,国見山,くにみざん,,,,1409,33.9075,133.7847222,徳島県,剣山地,
912,山岳,天狗塚,てんぐづか,,,,1812,33.82694444,133.9433333,徳島県,剣山地,
913,山岳,三嶺,みうね,,,,1894,33.83944444,133.9877778,徳島県 高知県,剣山地,日本二百名山
914,山岳,白髪山,しらがやま,,,,1770,33.81,133.9930556,高知県,剣山地,
915,山岳,石立山,いしたてざん,,,,1708,33.78472222,134.055,徳島県 高知県,剣山地,
916,山岳,梶ヶ森,かじがもり,,,,1400,33.75916667,133.7513889,高知県,四国山地東部,
917,山岳,甚吉森,じんきちもり,,,,1423,33.69472222,134.11,徳島県 高知県,四国山地東部,
918,山岳,天狗森,てんぐもり,,,,1296,33.61888889,134.0677778,高知県,四国山地東部,
919,山岳,鐘ヶ龍森,かねがりゅうもり,,,,1126,33.54694444,134.0819444,高知県,四国山地東部,
920,山岳,工石山,くいしやま,,,,1516,33.85555556,133.58,高知県,四国山地西部,
921,山岳,白髪山,しらがやま,,,,1469,33.81611111,133.5908333,高知県,四国山地西部,
922,山岳,稲叢山,いなむらやま,,,,1506,33.74694444,133.3591667,高知県,四国山地西部,
923,山岳,工石山,くいしやま,,,,1177,33.66972222,133.5061111,高知県,四国山地西部,
924,山岳,赤星山,あかぼしやま,,,,1453,33.91944444,133.4580556,愛媛県,石鎚山地,
925,山岳,東赤石山,ひがしあかいしやま,,,,1706,33.875,133.375,愛媛県,石鎚山地,日本二百名山
926,山岳,笹ヶ峰,ささがみね,,,,1860,33.82805556,133.2747222,愛媛県 高知県,石鎚山地,日本二百名山
927,山岳,伊予富士,いよふじ,,,,1756,33.78805556,133.2480556,愛媛県 高知県,石鎚山地,
928,山岳,瓶ヶ森,かめがもり,,,,1897,33.79472222,133.1933333,愛媛県,石鎚山地,
929,山岳,石鎚山,いしづちさん,天狗岳,てんぐだけ,,1982,33.76777778,133.115,愛媛県,石鎚山地,日本百名山
930,山岳,二ノ森,にのもり,,,,1930,33.75861111,133.0938889,愛媛県,石鎚山地,
931,山岳,筒上山,つつじょうざん,,,,1860,33.73194444,133.1611111,愛媛県 高知県,石鎚山地,
932,山岳,石墨山,いしずみさん,,,,1456,33.73388889,132.9847222,愛媛県,四国山地西部,
933,山岳,障子山,しょうじやま,,,,885,33.70527778,132.7652778,愛媛県,四国山地西部,
934,山岳,壺神山,つぼがみやま,,,,971,33.60555556,132.5547222,愛媛県,四国山地西部,
935,山岳,出石山,いずしやま,,,,812,33.535,132.4652778,愛媛県,四国山地西部,
936,山岳,神南山,かんなんざん,,,,710,33.5175,132.6327778,愛媛県,四国山地西部,
937,山岳,御在所山,ございしょざん,,,,915,33.34388889,132.7558333,愛媛県,四国山地西部,
938,山岳,笠取山,かさとりやま,,,,1562,33.55555556,132.9225,愛媛県,四国山地西部,
939,山岳,明神山,みょうじんさん,中津山,なかつさん,,1541,33.57555556,133.0466667,愛媛県 高知県,四国山地西部,
940,山岳,不入山,いらずやま,,,,1336,33.44083333,133.0630556,高知県,四国山地西部,
941,山岳,蟠蛇森,ばんだがもり,,,,770,33.44111111,133.2594444,高知県,四国山地西部,
942,山岳,鈴ヶ森,すずがもり,,,,1054,33.35638889,133.0511111,高知県,四国山地西部,
943,山岳,五在所ノ峯,ございしょのみね,,,,658,33.17722222,133.1508333,高知県,四国山地西部,
944,山岳,堂が森,どうがもり,,,,857,33.16,132.8766667,高知県,四国山地西部,
945,山岳,高月山,たかつきやま,,,,1229,33.20861111,132.6347222,愛媛県,四国山地西部,
946,山岳,三本杭,さんぼんぐい,,,,1226,33.18833333,132.6352778,愛媛県,四国山地西部,
947,山岳,篠山,ささやま,,,,1065,33.05583333,132.6591667,愛媛県 高知県,四国山地西部,
948,山岳,今ノ山,いまのやま,,,,868,32.8575,132.8502778,高知県,四国山地西部,
949,山岳,足立山,あだちやま,霧ヶ岳,きりがたけ,,598,33.85944444,130.9172222,福岡県,筑紫山地,
950,山岳,貫山,ぬきさん,,,,712,33.78055556,130.9094444,福岡県,筑紫山地,
951,山岳,福智山,ふくちやま,,,,901,33.74222222,130.8038889,福岡県,筑紫山地,
952,山岳,犬ヶ岳,いぬがたけ,,,,1131,33.51222222,131.0016667,大分県 福岡県,筑紫山地,
953,山岳,英彦山,ひこさん,,,,1199,33.47611111,130.9261111,福岡県 大分県,筑紫山地,日本二百名山
954,山岳,馬見山,うまみやま,,,,978,33.48638889,130.7677778,福岡県,筑紫山地,
955,山岳,犬鳴山,いぬなきやま,熊ヶ城,くまがしろ,,584,33.68722222,130.5491667,福岡県,筑紫山地,
956,山岳,三郡山,さんぐんざん,,,,936,33.55555556,130.5838889,福岡県,筑紫山地,
957,山岳,基山,きざん,,,,404,33.44277778,130.5102778,佐賀県,筑紫山地,
958,山岳,脊振山,せふりさん,,,,1055,33.43638889,130.3686111,福岡県 佐賀県,筑紫山地,
959,山岳,浮嶽,うきだけ,,,,805,33.47,130.0991667,福岡県 佐賀県,筑紫山地,
960,山岳,天山,てんざん,,,,1046,33.33888889,130.1427778,佐賀県,筑紫山地,
961,山岳,両子山,ふたごさん,,,,720,33.58305556,131.6016667,大分県,国東半島,
962,山岳,鹿嵐山,かならせやま,,,,758,33.43472222,131.2527778,大分県,阿蘇・くじゅうとその周辺,
963,山岳,鶴見岳,つるみだけ,,,,1375,33.28666667,131.4297222,大分県,阿蘇・くじゅうとその周辺,
964,山岳,由布岳,ゆふだけ,,,,1583,33.28222222,131.3902778,大分県,阿蘇・くじゅうとその周辺,日本二百名山
965,山岳,万年山,はねやま,,,,1140,33.23138889,131.1305556,大分県,阿蘇・くじゅうとその周辺,
966,山岳,涌蓋山,わいたざん,,,,1500,33.14,131.1644444,大分県,阿蘇・くじゅうとその周辺,
967,山岳,中岳,なかだけ,,,九重,1791,33.08583333,131.2488889,大分県,阿蘇・くじゅうとその周辺,日本百名山
968,山岳,黒岳,くろだけ,,,九重,1587,33.10555556,131.2927778,大分県,阿蘇・くじゅうとその周辺,
969,山岳,大船山,たいせんざん,,,九重,1786,33.095,131.2805556,大分県,阿蘇・くじゅうとその周辺,
970,山岳,三俣山,みまたやま,,,九重,1744,33.10388889,131.2463889,大分県,阿蘇・くじゅうとその周辺,
973,山岳,高岳,たかだけ,,,阿蘇山,1592,32.88444444,131.1038889,熊本県,阿蘇・くじゅうとその周辺,日本百名山
974,山岳,根子岳,ねこだけ,,,阿蘇山,1433,32.88361111,131.1444444,熊本県,阿蘇・くじゅうとその周辺,
976,山岳,杵島岳,きしまだけ,,,阿蘇山,1326,32.8925,131.0580556,熊本県,阿蘇・くじゅうとその周辺,
977,山岳,烏帽子岳,えぼしだけ,,,阿蘇山,1337,32.87361111,131.0580556,熊本県,阿蘇・くじゅうとその周辺,
978,山岳,鷹取山,たかとりやま,,,,802,33.30305556,130.7227778,福岡県,阿蘇・くじゅうとその周辺,
979,山岳,釈迦岳,しゃかだけ,,,,1231,33.1875,130.8891667,大分県,阿蘇・くじゅうとその周辺,
980,山岳,酒呑童子山,しゅてんどうじやま,,,,1181,33.09694444,130.9083333,大分県,阿蘇・くじゅうとその周辺,
981,山岳,国見山,くにみやま,,,,1018,33.10555556,130.8175,熊本県,阿蘇・くじゅうとその周辺,
982,山岳,筒ヶ岳,つつがたけ,,,,501,32.98472222,130.5275,熊本県,阿蘇・くじゅうとその周辺,
983,山岳,金峰山,きんぼうざん,,,,665,32.81416667,130.6388889,熊本県,阿蘇・くじゅうとその周辺,
984,山岳,黒髪山,くろかみざん,,,,516,33.21388889,129.9022222,佐賀県,佐賀西部・長崎・島原,
985,山岳,国見山,くにみやま,,,,776,33.23694444,129.8127778,長崎県,佐賀西部・長崎・島原,
986,山岳,虚空蔵山,こくぞうざん,,,,609,33.09055556,129.9213889,長崎県,佐賀西部・長崎・島原,
988,山岳,多良岳,たらだけ,,,,996,32.97555556,130.0927778,佐賀県,佐賀西部・長崎・島原,
991,山岳,雲仙岳,うんぜんだけ,平成新山,へいせいしんざん,,1483,32.76138889,130.2988889,長崎県,佐賀西部・長崎・島原,日本二百名山
992,山岳,長浦岳,ながうらだけ,,,,561,32.91361111,129.7447222,長崎県,佐賀西部・長崎・島原,
993,山岳,八郎岳,はちろうだけ,,,,590,32.67027778,129.8563889,長崎県,佐賀西部・長崎・島原,
994,島,御岳,みたけ,,,,479,34.57194444,129.3816667,長崎県,対馬,
995,島,白嶽,しらたけ,,,,518,34.26416667,129.2497222,長崎県,対馬,
996,島,有明山,ありあけやま,,,,558,34.20444444,129.265,長崎県,対馬,
997,島,矢立山,やたてやま,,,,648,34.1775,129.2261111,長崎県,対馬,
998,島,三王山,さんのうざん,雄嶽,おだけ,,439,32.93333333,129.0530556,長崎県,五島列島,
999,島,父ヶ岳,ててがたけ,,,,460,32.69833333,128.6811111,長崎県,五島列島,
1000,山岳,佩楯山,はいだてさん,,,,754,32.95305556,131.6458333,大分県,九州山地,
1001,山岳,傾山,かたむきやま,,,,1605,32.83888889,131.4758333,大分県,九州山地,
1002,山岳,大崩山,おおくえやま,,,,1644,32.73777778,131.5130556,宮崎県,九州山地,日本二百名山
1003,山岳,行縢山,むかばきやま,,,,830,32.62583333,131.5722222,宮崎県,九州山地,
1004,山岳,祖母山,そぼさん,,,,1756,32.82805556,131.3469444,大分県 宮崎県,九州山地,日本百名山
1006,山岳,諸塚山,もろつかやま,,,,1342,32.63472222,131.2875,宮崎県,九州山地,
1007,山岳,向坂山,むこうざかやま,,,,1685,32.57972222,131.105,熊本県 宮崎県,九州山地,
1008,山岳,国見岳,くにみだけ,,,,1739,32.54722222,131.0183333,熊本県 宮崎県,九州山地,
1009,山岳,上福根山,かみふくねやま,,,,1646,32.47333333,130.9469444,熊本県,九州山地,
1010,山岳,江代山,えしろやま,津野岳,つのだけ,,1607,32.37055556,131.0761111,熊本県 宮崎県,九州山地,
1011,山岳,市房山,いちふさやま,,,,1721,32.31166667,131.1011111,熊本県 宮崎県,九州山地,日本二百名山
1012,山岳,石堂山,いしどうやま,,,,1547,32.30027778,131.1677778,宮崎県,九州山地,
1013,山岳,尾鈴山,おすずやま,,,,1405,32.29916667,131.4266667,宮崎県,九州山地,日本二百名山
1014,山岳,仰烏帽子山,のけえぼしやま,,,,1302,32.37138889,130.7777778,熊本県,九州山地,
1015,山岳,白髪岳,しらがだけ,,,,1417,32.15027778,130.9433333,熊本県,九州山地,
1016,山岳,国見山,くにみやま,,,,969,32.18777778,130.6141667,熊本県,九州山地,
1017,山岳,矢筈岳,やはずだけ,,,,687,32.12277778,130.4005556,熊本県 鹿児島県,九州山地,
1018,山岳,紫尾山,しびさん,上宮山,じょうぐさん,,1067,31.98083333,130.3675,鹿児島県,九州山地,
1019,山岳,鰐塚山,わにつかやま,,,,1118,31.76888889,131.2694444,宮崎県,九州南部,
1020,山岳,韓国岳,からくにだけ,,,霧島,1700,31.93416667,130.8616667,宮崎県 鹿児島県,九州南部,日本百名山
1021,山岳,新燃岳,しんもえだけ,,,霧島,1421,31.90944444,130.8863889,宮崎県 鹿児島県,九州南部,
1022,山岳,高千穂峰,たかちほのみね,,,霧島,1574,31.88638889,130.9188889,宮崎県,九州南部,日本二百名山
1023,山岳,高隈山,たかくまやま,,,,1236,31.48611111,130.8186111,鹿児島県,九州南部,
1025,山岳,甫与志岳,ほよしだけ,,,,967,31.26416667,130.99,鹿児島県,九州南部,
1026,山岳,稲尾岳,いなおだけ,,,,930,31.12333333,130.8847222,鹿児島県,九州南部,
1027,山岳,桜島,さくらじま,御岳,おんたけ,,1117,31.5925,130.6566667,鹿児島県,九州南部,日本二百名山
1028,山岳,八重山,やえやま,,,,677,31.73444444,130.4483333,鹿児島県,九州南部,
1029,山岳,冠岳,かんむりだけ,西岳,にしだけ,,516,31.74861111,130.3311111,鹿児島県,九州南部,
1030,山岳,熊ヶ岳,くまがたけ,,,,590,31.45527778,130.4638889,鹿児島県,九州南部,
1031,山岳,金峯山,きんぽうざん,,,,636,31.46777778,130.3830556,鹿児島県,九州南部,
1032,山岳,野間岳,のまだけ,,,,591,31.40444444,130.1583333,鹿児島県,九州南部,
1033,山岳,開聞岳,かいもんだけ,,,,924,31.18,130.5283333,鹿児島県,九州南部,日本百名山
1034,島,倉岳,くらだけ,,,,682,32.42777778,130.3269444,熊本県,天草諸島,
1035,島,角山,かどやま,,,,526,32.39944444,130.0938889,熊本県,天草諸島,
1036,島,尾岳,おたけ,,,,604,31.72305556,129.7394444,鹿児島県,甑島列島,
1037,島,天女ヶ倉,あまめがくら,,,,238,30.74361111,131.0533333,鹿児島県,種子島,
1038,島,硫黄岳,いおうだけ,,,,704,30.79305556,130.3052778,鹿児島県,大隅諸島（薩摩硫黄島）,
1039,島,櫓岳,やぐらだけ,,,,622,30.82833333,129.9375,鹿児島県,大隅諸島（黒島）,
1040,島,古岳,ふるだけ,,,,657,30.44333333,130.2172222,鹿児島県,大隅諸島（口永良部島）,
1041,島,宮之浦岳,みやのうらだけ,,,,1936,30.33611111,130.5041667,鹿児島県,屋久島,日本百名山
1042,島,永田岳,ながただけ,,,,1886,30.34277778,130.4925,鹿児島県,屋久島,
1043,島,モッチョム岳,もっちょむだけ,,,,940,30.25666667,130.5641667,鹿児島県,屋久島,
1044,島,前岳,まえだけ,,,,628,29.96805556,129.9255556,鹿児島県,吐_喇列島（口之島）,
1045,島,御岳,おんたけ,,,,979,29.85916667,129.8569444,鹿児島県,吐_喇列島（中之島）,
1046,島,御岳,おたけ,,,,497,29.90305556,129.5416667,鹿児島県,吐_喇列島（臥蛇島）,
1047,島,御岳,おたけ,,,,796,29.63833333,129.7138889,鹿児島県,吐_喇列島（諏訪之瀬島）,
1048,島,御岳,みたけ,,,,584,29.465,129.5947222,鹿児島県,吐_喇列島（悪石島）,
1049,島,イマキラ岳,いまきらだけ,,,,292,29.14444444,129.2080556,鹿児島県,吐_喇列島（宝島）,
1050,島,横当島,よこあてじま,,,,495,28.80083333,128.9947222,鹿児島県,吐_喇列島（横当島）,
1051,島,湯湾岳,ゆわんだけ,,,,694,28.29611111,129.3211111,鹿児島県,奄美群島（奄美大島）,
1052,島,井之川岳,いのかわだけ,,,,645,27.77861111,128.9830556,鹿児島県,奄美群島（徳之島）,
1053,島,大山,おおやま,,,,240,27.36916667,128.5666667,鹿児島県,奄美群島（沖永良部島）,
1054,島,与那覇岳,よなはだけ,,,,503,26.71694444,128.2186111,沖縄県,沖縄島,
1055,島,八重岳,やえだけ,,,,453,26.63555556,127.9283333,沖縄県,沖縄島,
1056,島,恩納岳,おんなだけ,,,,363,26.47944444,127.8747222,沖縄県,沖縄島,
1057,島,於茂登岳,おもとだけ,,,,526,24.42722222,124.1833333,沖縄県,八重山列島（石垣島）,
1058,島,古見岳,こみだけ,,,,469,24.35916667,123.8911111,沖縄県,八重山列島（西表島）,
1059,島,宇良部岳,うらぶだけ,,,,231,24.45277778,123.0055556,沖縄県,八重山列島（与那国島）,
8000,建造物,東京スカイツリー,,,,,634,35.710139,139.810833,東京都,墨田区,高さ世界一の塔
8001,建造物,東京タワー,,,,,332.6,35.658611,139.745556,東京都,港区,
8002,建造物,あべのハルカス,,,,,300,34.645947,135.514267,大阪府,大阪市阿倍野区,高さ日本一のビル
8003,建造物,横浜ランドマークタワー,,,,,295.8,35.454722,139.631667,神奈川県,横浜市西区,
8004,建造物,りんくうゲートタワービル,,,,,256.1,34.411306,135.299861,大阪府,泉佐野市,
8005,建造物,さきしまコスモタワー,,大阪ワールドトレードセンタービルディング,,,256,34.637931,135.414467,大阪府,大阪市住之江区,
8006,建造物,ミッドタウン,,,,,248.1,35.666389,139.731667,東京都,港区,
8007,建造物,虎ノ門ヒルズ,,,,,247,35.666797,139.749408,東京都,港区,
8008,建造物,ミッドランドスクエア,,,,名古屋駅,246.9,35.170711,136.885181,愛知県,名古屋市中村区,
8009,建造物,JRセントラルタワーズ,,,,名古屋駅,245,35.171278,136.882639,愛知県,名古屋市中村区,
8010,建造物,東京都庁,,,,新宿新都心,242.9,35.6895,139.691694,東京都,新宿区,
8011,建造物,NTTドコモ代々木ビル,,ドコモタワー,,,239.9,35.685,139.703333,東京都,渋谷区,
8012,建造物,サンシャイン60,,,,,239.7,35.729167,139.718056,東京都,豊島区,
8013,建造物,六本木ヒルズ,,,,,238.1,35.6605,139.729056,東京都,港区,
8014,建造物,新宿パークタワー,,,,新宿新都心,235,35.685389,139.691056,東京都,新宿区,
8015,建造物,東京オペラシティ,,,,,234.4,35.683056,139.686861,東京都,新宿区,
8016,建造物,新宿三井ビル,,,,新宿新都心,224.9,35.691889,139.693917,東京都,新宿区,
8017,建造物,新宿センタービル,,,,新宿新都心,223,35.691694,139.695472,東京都,新宿区,
8018,建造物,聖路加タワー,せいるかタワー,,,,220.6,35.667418,139.778671,東京都,中央区,
8019,建造物,泉ガーデンタワー,,,,,216,35.664722,139.739444,東京都,港区,
8020,建造物,汐留シティセンター,,,,汐留,215.8,35.665361,139.761028,東京都,港区,
8021,建造物,G1TOWER,,,,,213.5,36.402244,140.513886,茨城県,ひたちなか市,高さ世界一のエレベーター研究施設
8022,建造物,電通本社ビル,,カレッタ汐留,,汐留,213.3,35.664333,139.762222,東京都,港区,
8023,建造物,アクトシティ浜松,,,,,213,34.705056,137.735694,静岡県,浜松市中区,
8024,建造物,新宿住友ビル,,,,新宿新都心,210.3,35.691389,139.6925,東京都,新宿区,
8025,建造物,豊島清掃工場,,,,,210,35.734678,139.714422,東京都,豊島区,高さ世界一の焼却炉煙突
8026,建造物,北浜タワー,,,,,209.4,34.689222,135.507194,大阪府,大阪市中央区,日本で最も高い分譲マンション
8027,建造物,グラントウキョウ,,,,,204.9,35.681694,139.768972,東京都,千代田区,
8028,建造物,コクーンタワー,,モード学園,,,203.7,35.691864,139.696931,東京都,新宿区,
8029,建造物,パークシティ武蔵小杉,,,,,203.5,35.5746634,139.6585,神奈川県,川崎市中原区,
8030,建造物,新宿野村ビル,,,,新宿新都心,203.3,35.692778,139.695278,東京都,新宿区,
8031,建造物,クロスタワー大阪ベイ,,,,,200.4,34.668389,135.460472,大阪府,大阪市港区,
8032,建造物,読売新聞本社ビル,,,,,200,35.6871845,139.7623109,東京都,千代田区,
8033,建造物,JPタワー,,,,,200,35.67975,139.764583,東京都,千代田区,
8034,建造物,JPタワー名古屋,,,,名古屋駅,200,35.172472,136.88225,愛知県,名古屋市中村区,
8035,建造物,大阪ベイタワー,,ORC200,おーくにひゃく,,200,34.669806,135.460222,大阪府,大阪市港区,
9000,都市,札幌市,,,,,,43.06417,141.34694,北海道,,
9001,都市,青森市,,,,,,40.82444,140.74,青森県,,
9002,都市,盛岡市,,,,,,39.70361,141.1525,岩手県,,
9003,都市,仙台市,,,,,,38.26889,140.87194,宮城県,,
9004,都市,秋田市,,,,,,39.71861,140.1025,秋田県,,
9005,都市,山形市,,,,,,38.24056,140.36333,山形県,,
9006,都市,福島市,,,,,,37.75,140.46778,福島県,,
9007,都市,水戸市,,,,,,36.34139,140.44667,茨城県,,
9008,都市,宇都宮市,,,,,,36.56583,139.88361,栃木県,,
9009,都市,前橋市,,,,,,36.39111,139.06083,群馬県,,
9010,都市,さいたま市,,,,,,35.85694,139.64889,埼玉県,,
9011,都市,千葉市,,,,,,35.60472,140.12333,千葉県,,
9012,都市,横浜市,,,,,,35.44778,139.6425,神奈川県,,
9013,都市,新潟市,,,,,,37.90222,139.02361,新潟県,,
9014,都市,富山市,,,,,,36.69528,137.21139,富山県,,
9015,都市,金沢市,,,,,,36.59444,136.62556,石川県,,
9016,都市,福井市,,,,,,36.06528,136.22194,福井県,,
9017,都市,甲府市,,,,,,35.66389,138.56833,山梨県,,
9018,都市,長野市,,,,,,36.65139,138.18111,長野県,,
9019,都市,岐阜市,,,,,,35.39111,136.72222,岐阜県,,
9020,都市,静岡市,,,,,,34.97694,138.38306,静岡県,,
9021,都市,名古屋市,,,,,,35.18028,136.90667,愛知県,,
9022,都市,津市,,,,,,34.73028,136.50861,三重県,,
9023,都市,大津市,,,,,,35.00444,135.86833,滋賀県,,
9024,都市,京都市,,,,,,35.02139,135.75556,京都府,,
9025,都市,大阪市,,,,,,34.68639,135.52,大阪府,,
9026,都市,神戸市,,,,,,34.69139,135.18306,兵庫県,,
9027,都市,奈良市,,,,,,34.68528,135.83278,奈良県,,
9028,都市,和歌山市,,,,,,34.22611,135.1675,和歌山県,,
9029,都市,鳥取市,,,,,,35.50361,134.23833,鳥取県,,
9030,都市,松江市,,,,,,35.47222,133.05056,島根県,,
9031,都市,岡山市,,,,,,34.66167,133.935,岡山県,,
9032,都市,広島市,,,,,,34.39639,132.45944,広島県,,
9033,都市,山口市,,,,,,34.18583,131.47139,山口県,,
9034,都市,徳島市,,,,,,34.06583,134.55944,徳島県,,
9035,都市,高松市,,,,,,34.34028,134.04333,香川県,,
9036,都市,松山市,,,,,,33.84167,132.76611,愛媛県,,
9037,都市,高知市,,,,,,33.55972,133.53111,高知県,,
9038,都市,福岡市,,,,,,33.60639,130.41806,福岡県,,
9039,都市,佐賀市,,,,,,33.24944,130.29889,佐賀県,,
9040,都市,長崎市,,,,,,32.74472,129.87361,長崎県,,
9041,都市,熊本市,,,,,,32.78972,130.74167,熊本県,,
9042,都市,大分市,,,,,,33.23806,131.6125,大分県,,
9043,都市,宮崎市,,,,,,31.91111,131.42389,宮崎県,,
9044,都市,鹿児島市,,,,,,31.56028,130.55806,鹿児島県,,
9045,都市,那覇市,,,,,,26.2125,127.68111,沖縄県,,